[{"type":"Feature","geometry":{"type":"Point","coordinates":[-123.06962585449219,49.263931274414062,0]},"properties":{"DATE_PLANTED":"20081203","CULTIVAR_NAME":" ","LATITUDE":49.263930999999999,"TREE_ID":579,"SPECIES_NAME":"EUCHLORA   X","COMMON_NAME":"CRIMEAN LINDEN","DIAMETER":9.5,"GENUS_NAME":"TILIA","LONGITUDE":-123.06962900000001}},{"type":"Feature","geometry":{"type":"Point","coordinates":[-123.07537078857422,49.268192291259766,0]},"properties":{"DATE_PLANTED":"20190602","CULTIVAR_NAME":"MORGAN","LATITUDE":49.268192999999997,"TREE_ID":2186,"SPECIES_NAME":"FREEMANI   X","COMMON_NAME":"MORGAN RED MAPLE","DIAMETER":13,"GENUS_NAME":"ACER","LONGITUDE":-123.075374}},{"type":"Feature","geometry":{"type":"Point","coordinates":[-123.07537841796875,49.268089294433594,0]},"properties":{"DATE_PLANTED":"20190602","CULTIVAR_NAME":"MORGAN","LATITUDE":49.268087999999999,"TREE_ID":2188,"SPECIES_NAME":"FREEMANI   X","COMMON_NAME":"MORGAN RED MAPLE","DIAMETER":11,"GENUS_NAME":"ACER","LONGITUDE":-123.07537499999999}},{"type":"Feature","geometry":{"type":"Point","coordinates":[-123.07537841796875,49.267982482910156,0]},"properties":{"DATE_PLANTED":"20190602","CULTIVAR_NAME":"MORGAN","LATITUDE":49.267983999999998,"TREE_ID":2189,"SPECIES_NAME":"FREEMANI   X","COMMON_NAME":"MORGAN RED MAPLE","DIAMETER":9.5,"GENUS_NAME":"ACER","LONGITUDE":-123.075378}},{"type":"Feature","geometry":{"type":"Point","coordinates":[-123.06903839111328,49.267738342285156,0]},"properties":{"DATE_PLANTED":"20190602","CULTIVAR_NAME":"KWANZAN","LATITUDE":49.267738000000001,"TREE_ID":2197,"SPECIES_NAME":"SERRULATA","COMMON_NAME":"KWANZAN FLOWERING CHERRY","DIAMETER":20,"GENUS_NAME":"PRUNUS","LONGITUDE":-123.069042}},{"type":"Feature","geometry":{"type":"Point","coordinates":[-123.06892395019531,49.267833709716797,0]},"properties":{"DATE_PLANTED":"20190602","CULTIVAR_NAME":"KWANZAN","LATITUDE":49.267831999999999,"TREE_ID":2198,"SPECIES_NAME":"SERRULATA","COMMON_NAME":"KWANZAN FLOWERING CHERRY","DIAMETER":15,"GENUS_NAME":"PRUNUS","LONGITUDE":-123.068924}},{"type":"Feature","geometry":{"type":"Point","coordinates":[-123.06861114501953,49.267730712890625,0]},"properties":{"DATE_PLANTED":"20190602","CULTIVAR_NAME":"KWANZAN","LATITUDE":49.267732000000002,"TREE_ID":2201,"SPECIES_NAME":"SERRULATA","COMMON_NAME":"KWANZAN FLOWERING CHERRY","DIAMETER":25.25,"GENUS_NAME":"PRUNUS","LONGITUDE":-123.068612}},{"type":"Feature","geometry":{"type":"Point","coordinates":[-123.06810760498047,49.267730712890625,0]},"properties":{"DATE_PLANTED":"20190602","CULTIVAR_NAME":"KWANZAN","LATITUDE":49.267729000000003,"TREE_ID":2207,"SPECIES_NAME":"SERRULATA","COMMON_NAME":"KWANZAN FLOWERING CHERRY","DIAMETER":32,"GENUS_NAME":"PRUNUS","LONGITUDE":-123.068106}},{"type":"Feature","geometry":{"type":"Point","coordinates":[-123.06768798828125,49.267730712890625,0]},"properties":{"DATE_PLANTED":"20190602","CULTIVAR_NAME":"KWANZAN","LATITUDE":49.267730999999998,"TREE_ID":2210,"SPECIES_NAME":"SERRULATA","COMMON_NAME":"KWANZAN FLOWERING CHERRY","DIAMETER":25,"GENUS_NAME":"PRUNUS","LONGITUDE":-123.067688}},{"type":"Feature","geometry":{"type":"Point","coordinates":[-123.06726837158203,49.267723083496094,0]},"properties":{"DATE_PLANTED":"20190602","CULTIVAR_NAME":"KWANZAN","LATITUDE":49.267724000000001,"TREE_ID":2215,"SPECIES_NAME":"SERRULATA","COMMON_NAME":"KWANZAN FLOWERING CHERRY","DIAMETER":29,"GENUS_NAME":"PRUNUS","LONGITUDE":-123.067272}},{"type":"Feature","geometry":{"type":"Point","coordinates":[-123.06678771972656,49.267818450927734,0]},"properties":{"DATE_PLANTED":"20190602","CULTIVAR_NAME":"KWANZAN","LATITUDE":49.267817000000001,"TREE_ID":2216,"SPECIES_NAME":"SERRULATA","COMMON_NAME":"KWANZAN FLOWERING CHERRY","DIAMETER":34.25,"GENUS_NAME":"PRUNUS","LONGITUDE":-123.066785}},{"type":"Feature","geometry":{"type":"Point","coordinates":[-123.06605529785156,49.267715454101562,0]},"properties":{"DATE_PLANTED":"20190602","CULTIVAR_NAME":"KWANZAN","LATITUDE":49.267715000000003,"TREE_ID":2217,"SPECIES_NAME":"SERRULATA","COMMON_NAME":"KWANZAN FLOWERING CHERRY","DIAMETER":29,"GENUS_NAME":"PRUNUS","LONGITUDE":-123.066052}},{"type":"Feature","geometry":{"type":"Point","coordinates":[-123.06687164306641,49.267719268798828,0]},"properties":{"DATE_PLANTED":"20190602","CULTIVAR_NAME":"KWANZAN","LATITUDE":49.267719,"TREE_ID":2220,"SPECIES_NAME":"SERRULATA","COMMON_NAME":"KWANZAN FLOWERING CHERRY","DIAMETER":29,"GENUS_NAME":"PRUNUS","LONGITUDE":-123.066869}},{"type":"Feature","geometry":{"type":"Point","coordinates":[-123.06704711914062,49.267723083496094,0]},"properties":{"DATE_PLANTED":"20190602","CULTIVAR_NAME":"KWANZAN","LATITUDE":49.267721999999999,"TREE_ID":2222,"SPECIES_NAME":"SERRULATA","COMMON_NAME":"KWANZAN FLOWERING CHERRY","DIAMETER":30,"GENUS_NAME":"PRUNUS","LONGITUDE":-123.067044}},{"type":"Feature","geometry":{"type":"Point","coordinates":[-123.06658935546875,49.267814636230469,0]},"properties":{"DATE_PLANTED":"20190602","CULTIVAR_NAME":"KWANZAN","LATITUDE":49.267816000000003,"TREE_ID":2223,"SPECIES_NAME":"SERRULATA","COMMON_NAME":"KWANZAN FLOWERING CHERRY","DIAMETER":27.5,"GENUS_NAME":"PRUNUS","LONGITUDE":-123.06658899999999}},{"type":"Feature","geometry":{"type":"Point","coordinates":[-123.06478118896484,49.267799377441406,0]},"properties":{"DATE_PLANTED":"20190602","CULTIVAR_NAME":"KWANZAN","LATITUDE":49.267800999999999,"TREE_ID":2228,"SPECIES_NAME":"SERRULATA","COMMON_NAME":"KWANZAN FLOWERING CHERRY","DIAMETER":29,"GENUS_NAME":"PRUNUS","LONGITUDE":-123.064778}},{"type":"Feature","geometry":{"type":"Point","coordinates":[-123.06462097167969,49.267799377441406,0]},"properties":{"DATE_PLANTED":"20190602","CULTIVAR_NAME":"KWANZAN","LATITUDE":49.267800999999999,"TREE_ID":2229,"SPECIES_NAME":"SERRULATA","COMMON_NAME":"KWANZAN FLOWERING CHERRY","DIAMETER":23,"GENUS_NAME":"PRUNUS","LONGITUDE":-123.06462399999999}},{"type":"Feature","geometry":{"type":"Point","coordinates":[-123.064453125,49.267799377441406,0]},"properties":{"DATE_PLANTED":"20190602","CULTIVAR_NAME":"KWANZAN","LATITUDE":49.267797999999999,"TREE_ID":2230,"SPECIES_NAME":"SERRULATA","COMMON_NAME":"KWANZAN FLOWERING CHERRY","DIAMETER":14,"GENUS_NAME":"PRUNUS","LONGITUDE":-123.06444999999999}},{"type":"Feature","geometry":{"type":"Point","coordinates":[-123.05989074707031,49.268955230712891,0]},"properties":{"DATE_PLANTED":"20190602","CULTIVAR_NAME":"KWANZAN","LATITUDE":49.268956000000003,"TREE_ID":1234,"SPECIES_NAME":"SERRULATA","COMMON_NAME":"KWANZAN FLOWERING CHERRY","DIAMETER":34,"GENUS_NAME":"PRUNUS","LONGITUDE":-123.059888}},{"type":"Feature","geometry":{"type":"Point","coordinates":[-123.05989074707031,49.268730163574219,0]},"properties":{"DATE_PLANTED":"20190602","CULTIVAR_NAME":"KWANZAN","LATITUDE":49.268729999999998,"TREE_ID":1236,"SPECIES_NAME":"SERRULATA","COMMON_NAME":"KWANZAN FLOWERING CHERRY","DIAMETER":23,"GENUS_NAME":"PRUNUS","LONGITUDE":-123.059893}},{"type":"Feature","geometry":{"type":"Point","coordinates":[-123.05959320068359,49.268669128417969,0]},"properties":{"DATE_PLANTED":"20190602","CULTIVAR_NAME":" ","LATITUDE":49.268667999999998,"TREE_ID":1237,"SPECIES_NAME":"RUBRA","COMMON_NAME":"RED OAK","DIAMETER":38.5,"GENUS_NAME":"QUERCUS","LONGITUDE":-123.05959199999999}},{"type":"Feature","geometry":{"type":"Point","coordinates":[-123.05942535400391,49.268665313720703,0]},"properties":{"DATE_PLANTED":"20190602","CULTIVAR_NAME":" ","LATITUDE":49.268664000000001,"TREE_ID":1238,"SPECIES_NAME":"BIGNONIOIDES","COMMON_NAME":"COMMON CATALPA","DIAMETER":31.5,"GENUS_NAME":"CATALPA","LONGITUDE":-123.059426}},{"type":"Feature","geometry":{"type":"Point","coordinates":[-123.05924987792969,49.268665313720703,0]},"properties":{"DATE_PLANTED":"20190602","CULTIVAR_NAME":" ","LATITUDE":49.268666000000003,"TREE_ID":1239,"SPECIES_NAME":"RUBRA","COMMON_NAME":"RED OAK","DIAMETER":42,"GENUS_NAME":"QUERCUS","LONGITUDE":-123.05925000000001}},{"type":"Feature","geometry":{"type":"Point","coordinates":[-123.05907440185547,49.268661499023438,0]},"properties":{"DATE_PLANTED":"19941028","CULTIVAR_NAME":" ","LATITUDE":49.268662999999997,"TREE_ID":1240,"SPECIES_NAME":"BIGNONIOIDES","COMMON_NAME":"COMMON CATALPA","DIAMETER":26,"GENUS_NAME":"CATALPA","LONGITUDE":-123.059076}},{"type":"Feature","geometry":{"type":"Point","coordinates":[-123.05892181396484,49.268661499023438,0]},"properties":{"DATE_PLANTED":"20190602","CULTIVAR_NAME":" ","LATITUDE":49.268661999999999,"TREE_ID":1241,"SPECIES_NAME":"RUBRA","COMMON_NAME":"RED OAK","DIAMETER":54,"GENUS_NAME":"QUERCUS","LONGITUDE":-123.058921}},{"type":"Feature","geometry":{"type":"Point","coordinates":[-123.05868530273438,49.268661499023438,0]},"properties":{"DATE_PLANTED":"19900202","CULTIVAR_NAME":" ","LATITUDE":49.268661000000002,"TREE_ID":1242,"SPECIES_NAME":"EUCHLORA   X","COMMON_NAME":"CRIMEAN LINDEN","DIAMETER":13,"GENUS_NAME":"TILIA","LONGITUDE":-123.058683}},{"type":"Feature","geometry":{"type":"Point","coordinates":[-123.05825042724609,49.268657684326172,0]},"properties":{"DATE_PLANTED":"20190602","CULTIVAR_NAME":" ","LATITUDE":49.268658000000002,"TREE_ID":1245,"SPECIES_NAME":"RUBRA","COMMON_NAME":"RED OAK","DIAMETER":34,"GENUS_NAME":"QUERCUS","LONGITUDE":-123.05824699999999}},{"type":"Feature","geometry":{"type":"Point","coordinates":[-123.05782318115234,49.268653869628906,0]},"properties":{"DATE_PLANTED":"20190602","CULTIVAR_NAME":" ","LATITUDE":49.268653,"TREE_ID":1247,"SPECIES_NAME":"BIGNONIOIDES","COMMON_NAME":"COMMON CATALPA","DIAMETER":31.5,"GENUS_NAME":"CATALPA","LONGITUDE":-123.05782600000001}},{"type":"Feature","geometry":{"type":"Point","coordinates":[-123.05782318115234,49.2685546875,0]},"properties":{"DATE_PLANTED":"20000131","CULTIVAR_NAME":"CALOCARPA","LATITUDE":49.268555999999997,"TREE_ID":1248,"SPECIES_NAME":"ZUMI","COMMON_NAME":"REDBUD CRABAPPLE","DIAMETER":3,"GENUS_NAME":"MALUS","LONGITUDE":-123.057824}},{"type":"Feature","geometry":{"type":"Point","coordinates":[-123.05764007568359,49.268650054931641,0]},"properties":{"DATE_PLANTED":"20190602","CULTIVAR_NAME":" ","LATITUDE":49.268650999999998,"TREE_ID":1250,"SPECIES_NAME":"RUBRA","COMMON_NAME":"RED OAK","DIAMETER":38,"GENUS_NAME":"QUERCUS","LONGITUDE":-123.057638}},{"type":"Feature","geometry":{"type":"Point","coordinates":[-123.05763244628906,49.2685546875,0]},"properties":{"DATE_PLANTED":"20190602","CULTIVAR_NAME":" ","LATITUDE":49.268555999999997,"TREE_ID":1251,"SPECIES_NAME":"RUBRA","COMMON_NAME":"RED OAK","DIAMETER":28,"GENUS_NAME":"QUERCUS","LONGITUDE":-123.05763399999999}},{"type":"Feature","geometry":{"type":"Point","coordinates":[-123.05743408203125,49.2685546875,0]},"properties":{"DATE_PLANTED":"20190602","CULTIVAR_NAME":" ","LATITUDE":49.268554000000002,"TREE_ID":1252,"SPECIES_NAME":"SPECIES","COMMON_NAME":"CATALPA SPECIES","DIAMETER":32,"GENUS_NAME":"CATALPA","LONGITUDE":-123.057433}},{"type":"Feature","geometry":{"type":"Point","coordinates":[-123.05744171142578,49.268650054931641,0]},"properties":{"DATE_PLANTED":"20190602","CULTIVAR_NAME":" ","LATITUDE":49.268650999999998,"TREE_ID":1253,"SPECIES_NAME":"BIGNONIOIDES","COMMON_NAME":"COMMON CATALPA","DIAMETER":28,"GENUS_NAME":"CATALPA","LONGITUDE":-123.057438}},{"type":"Feature","geometry":{"type":"Point","coordinates":[-123.05727386474609,49.2685546875,0]},"properties":{"DATE_PLANTED":"20190602","CULTIVAR_NAME":" ","LATITUDE":49.268552999999997,"TREE_ID":1254,"SPECIES_NAME":"RUBRA","COMMON_NAME":"RED OAK","DIAMETER":37,"GENUS_NAME":"QUERCUS","LONGITUDE":-123.057275}},{"type":"Feature","geometry":{"type":"Point","coordinates":[-123.05727386474609,49.268650054931641,0]},"properties":{"DATE_PLANTED":"20190602","CULTIVAR_NAME":" ","LATITUDE":49.268649000000003,"TREE_ID":1255,"SPECIES_NAME":"RUBRA","COMMON_NAME":"RED OAK","DIAMETER":32.5,"GENUS_NAME":"QUERCUS","LONGITUDE":-123.057277}},{"type":"Feature","geometry":{"type":"Point","coordinates":[-123.05687713623047,49.268550872802734,0]},"properties":{"DATE_PLANTED":"20190602","CULTIVAR_NAME":" ","LATITUDE":49.268549,"TREE_ID":1257,"SPECIES_NAME":"RUBRA","COMMON_NAME":"RED OAK","DIAMETER":33,"GENUS_NAME":"QUERCUS","LONGITUDE":-123.056876}},{"type":"Feature","geometry":{"type":"Point","coordinates":[-123.06549835205078,49.267807006835938,0]},"properties":{"DATE_PLANTED":"20190602","CULTIVAR_NAME":" ","LATITUDE":49.267808000000002,"TREE_ID":2224,"SPECIES_NAME":"SARGENTII","COMMON_NAME":"SARGENT FLOWERING CHERRY","DIAMETER":23,"GENUS_NAME":"PRUNUS","LONGITUDE":-123.065499}},{"type":"Feature","geometry":{"type":"Point","coordinates":[-123.06308746337891,49.267791748046875,0]},"properties":{"DATE_PLANTED":"20190602","CULTIVAR_NAME":" ","LATITUDE":49.267791000000003,"TREE_ID":2234,"SPECIES_NAME":"PAPYRIFERA","COMMON_NAME":"PAPER BIRCH","DIAMETER":9.5,"GENUS_NAME":"BETULA","LONGITUDE":-123.063084}},{"type":"Feature","geometry":{"type":"Point","coordinates":[-123.06294250488281,49.267791748046875,0]},"properties":{"DATE_PLANTED":"20190602","CULTIVAR_NAME":" ","LATITUDE":49.267792,"TREE_ID":2235,"SPECIES_NAME":"AMERICANA","COMMON_NAME":"BASSWOOD","DIAMETER":23,"GENUS_NAME":"TILIA","LONGITUDE":-123.062943}},{"type":"Feature","geometry":{"type":"Point","coordinates":[-123.06282043457031,49.267791748046875,0]},"properties":{"DATE_PLANTED":"20190602","CULTIVAR_NAME":" ","LATITUDE":49.267791000000003,"TREE_ID":2236,"SPECIES_NAME":"AMERICANA","COMMON_NAME":"BASSWOOD","DIAMETER":19,"GENUS_NAME":"TILIA","LONGITUDE":-123.06282299999999}},{"type":"Feature","geometry":{"type":"Point","coordinates":[-123.06269836425781,49.267787933349609,0]},"properties":{"DATE_PLANTED":"20190602","CULTIVAR_NAME":" ","LATITUDE":49.267786999999998,"TREE_ID":2237,"SPECIES_NAME":"AMERICANA","COMMON_NAME":"BASSWOOD","DIAMETER":25,"GENUS_NAME":"TILIA","LONGITUDE":-123.06269500000001}},{"type":"Feature","geometry":{"type":"Point","coordinates":[-123.06243896484375,49.267784118652344,0]},"properties":{"DATE_PLANTED":"20190602","CULTIVAR_NAME":" ","LATITUDE":49.267783000000001,"TREE_ID":2238,"SPECIES_NAME":"AMERICANA","COMMON_NAME":"BASSWOOD","DIAMETER":33,"GENUS_NAME":"TILIA","LONGITUDE":-123.062439}},{"type":"Feature","geometry":{"type":"Point","coordinates":[-123.06199645996094,49.267871856689453,0]},"properties":{"DATE_PLANTED":"20190602","CULTIVAR_NAME":" ","LATITUDE":49.267870000000002,"TREE_ID":2241,"SPECIES_NAME":"SARGENTII","COMMON_NAME":"SARGENT FLOWERING CHERRY","DIAMETER":13,"GENUS_NAME":"PRUNUS","LONGITUDE":-123.062}},{"type":"Feature","geometry":{"type":"Point","coordinates":[-123.06199645996094,49.267963409423828,0]},"properties":{"DATE_PLANTED":"20190602","CULTIVAR_NAME":" ","LATITUDE":49.267964999999997,"TREE_ID":2242,"SPECIES_NAME":"SARGENTII","COMMON_NAME":"SARGENT FLOWERING CHERRY","DIAMETER":10.5,"GENUS_NAME":"PRUNUS","LONGITUDE":-123.061994}},{"type":"Feature","geometry":{"type":"Point","coordinates":[-123.06120300292969,49.267772674560547,0]},"properties":{"DATE_PLANTED":"19900202","CULTIVAR_NAME":" ","LATITUDE":49.267774000000003,"TREE_ID":2248,"SPECIES_NAME":"EUCHLORA   X","COMMON_NAME":"CRIMEAN LINDEN","DIAMETER":13.5,"GENUS_NAME":"TILIA","LONGITUDE":-123.06120300000001}},{"type":"Feature","geometry":{"type":"Point","coordinates":[-123.06082916259766,49.267772674560547,0]},"properties":{"DATE_PLANTED":"20190602","CULTIVAR_NAME":" ","LATITUDE":49.267771000000003,"TREE_ID":2250,"SPECIES_NAME":"HIPPOCASTANUM","COMMON_NAME":"COMMON HORSECHESTNUT","DIAMETER":35,"GENUS_NAME":"AESCULUS","LONGITUDE":-123.06083099999999}},{"type":"Feature","geometry":{"type":"Point","coordinates":[-123.06036376953125,49.267768859863281,0]},"properties":{"DATE_PLANTED":"20190602","CULTIVAR_NAME":" ","LATITUDE":49.267767999999997,"TREE_ID":2252,"SPECIES_NAME":"COMMUNIS","COMMON_NAME":"COMMOM JUNIPER","DIAMETER":31,"GENUS_NAME":"JUNIPERUS","LONGITUDE":-123.060366}},{"type":"Feature","geometry":{"type":"Point","coordinates":[-123.06031799316406,49.267768859863281,0]},"properties":{"DATE_PLANTED":"20190602","CULTIVAR_NAME":" ","LATITUDE":49.267767999999997,"TREE_ID":2253,"SPECIES_NAME":"COMMUNIS","COMMON_NAME":"COMMOM JUNIPER","DIAMETER":32,"GENUS_NAME":"JUNIPERUS","LONGITUDE":-123.060316}},{"type":"Feature","geometry":{"type":"Point","coordinates":[-123.06005859375,49.267856597900391,0]},"properties":{"DATE_PLANTED":"20190602","CULTIVAR_NAME":"RANCHO","LATITUDE":49.267857999999997,"TREE_ID":2255,"SPECIES_NAME":"SARGENTII","COMMON_NAME":"RANCHO SARGENT CHERRY","DIAMETER":11,"GENUS_NAME":"PRUNUS","LONGITUDE":-123.060059}},{"type":"Feature","geometry":{"type":"Point","coordinates":[-123.06005859375,49.267990112304688,0]},"properties":{"DATE_PLANTED":"20190602","CULTIVAR_NAME":"RANCHO","LATITUDE":49.267989,"TREE_ID":2256,"SPECIES_NAME":"SARGENTII","COMMON_NAME":"RANCHO SARGENT CHERRY","DIAMETER":17,"GENUS_NAME":"PRUNUS","LONGITUDE":-123.060058}},{"type":"Feature","geometry":{"type":"Point","coordinates":[-123.06005859375,49.268104553222656,0]},"properties":{"DATE_PLANTED":"20190602","CULTIVAR_NAME":"RANCHO","LATITUDE":49.268104000000001,"TREE_ID":2257,"SPECIES_NAME":"SARGENTII","COMMON_NAME":"RANCHO SARGENT CHERRY","DIAMETER":19,"GENUS_NAME":"PRUNUS","LONGITUDE":-123.060056}},{"type":"Feature","geometry":{"type":"Point","coordinates":[-123.05992126464844,49.267559051513672,0]},"properties":{"DATE_PLANTED":"20190602","CULTIVAR_NAME":"SEIBOLDI","LATITUDE":49.267558000000001,"TREE_ID":2258,"SPECIES_NAME":"SERRULATA","COMMON_NAME":"SEIBOLDI CHERRY","DIAMETER":24,"GENUS_NAME":"PRUNUS","LONGITUDE":-123.05991899999999}},{"type":"Feature","geometry":{"type":"Point","coordinates":[-123.05992126464844,49.267433166503906,0]},"properties":{"DATE_PLANTED":"20190602","CULTIVAR_NAME":"KWANZAN","LATITUDE":49.267434000000002,"TREE_ID":2259,"SPECIES_NAME":"SERRULATA","COMMON_NAME":"KWANZAN FLOWERING CHERRY","DIAMETER":26.5,"GENUS_NAME":"PRUNUS","LONGITUDE":-123.059918}},{"type":"Feature","geometry":{"type":"Point","coordinates":[-123.05765533447266,49.267745971679688,0]},"properties":{"DATE_PLANTED":"20190602","CULTIVAR_NAME":" ","LATITUDE":49.267747,"TREE_ID":2260,"SPECIES_NAME":"PALUSTRIS","COMMON_NAME":"PIN OAK","DIAMETER":32.5,"GENUS_NAME":"QUERCUS","LONGITUDE":-123.057652}},{"type":"Feature","geometry":{"type":"Point","coordinates":[-123.05745697021484,49.267745971679688,0]},"properties":{"DATE_PLANTED":"20190602","CULTIVAR_NAME":" ","LATITUDE":49.267744999999998,"TREE_ID":2261,"SPECIES_NAME":"BIGNONIOIDES","COMMON_NAME":"COMMON CATALPA","DIAMETER":24,"GENUS_NAME":"CATALPA","LONGITUDE":-123.05745400000001}},{"type":"Feature","geometry":{"type":"Point","coordinates":[-123.0572509765625,49.267742156982422,0]},"properties":{"DATE_PLANTED":"20190602","CULTIVAR_NAME":" ","LATITUDE":49.267743000000003,"TREE_ID":2262,"SPECIES_NAME":"RUBRA","COMMON_NAME":"RED OAK","DIAMETER":28,"GENUS_NAME":"QUERCUS","LONGITUDE":-123.057253}},{"type":"Feature","geometry":{"type":"Point","coordinates":[-123.06674194335938,49.268623352050781,0]},"properties":{"DATE_PLANTED":"20190602","CULTIVAR_NAME":"KWANZAN","LATITUDE":49.268622000000001,"TREE_ID":1169,"SPECIES_NAME":"SERRULATA","COMMON_NAME":"KWANZAN FLOWERING CHERRY","DIAMETER":13.5,"GENUS_NAME":"PRUNUS","LONGITUDE":-123.066743}},{"type":"Feature","geometry":{"type":"Point","coordinates":[-123.06658935546875,49.268718719482422,0]},"properties":{"DATE_PLANTED":"20190602","CULTIVAR_NAME":"KWANZAN","LATITUDE":49.268718999999997,"TREE_ID":1170,"SPECIES_NAME":"SERRULATA","COMMON_NAME":"KWANZAN FLOWERING CHERRY","DIAMETER":28.5,"GENUS_NAME":"PRUNUS","LONGITUDE":-123.066591}},{"type":"Feature","geometry":{"type":"Point","coordinates":[-123.06655120849609,49.268619537353516,0]},"properties":{"DATE_PLANTED":"20190602","CULTIVAR_NAME":"KWANZAN","LATITUDE":49.268621000000003,"TREE_ID":1171,"SPECIES_NAME":"SERRULATA","COMMON_NAME":"KWANZAN FLOWERING CHERRY","DIAMETER":29,"GENUS_NAME":"PRUNUS","LONGITUDE":-123.066553}},{"type":"Feature","geometry":{"type":"Point","coordinates":[-123.06551361083984,49.268714904785156,0]},"properties":{"DATE_PLANTED":"20190602","CULTIVAR_NAME":"ROTUNDIFOLIA","LATITUDE":49.268712999999998,"TREE_ID":1177,"SPECIES_NAME":"SYLVATICA","COMMON_NAME":"ROUND LEAF BEECH","DIAMETER":15,"GENUS_NAME":"FAGUS","LONGITUDE":-123.065512}},{"type":"Feature","geometry":{"type":"Point","coordinates":[-123.065673828125,49.268814086914062,0]},"properties":{"DATE_PLANTED":"20190602","CULTIVAR_NAME":" ","LATITUDE":49.268813000000002,"TREE_ID":1178,"SPECIES_NAME":"RUBRUM","COMMON_NAME":"RED MAPLE","DIAMETER":16.5,"GENUS_NAME":"ACER","LONGITUDE":-123.065673}},{"type":"Feature","geometry":{"type":"Point","coordinates":[-123.06552886962891,49.268608093261719,0]},"properties":{"DATE_PLANTED":"20190602","CULTIVAR_NAME":" ","LATITUDE":49.268608999999998,"TREE_ID":1179,"SPECIES_NAME":"SYLVATICA","COMMON_NAME":"EUROPEAN BEECH","DIAMETER":13,"GENUS_NAME":"FAGUS","LONGITUDE":-123.06553099999999}},{"type":"Feature","geometry":{"type":"Point","coordinates":[-123.06532287597656,49.268611907958984,0]},"properties":{"DATE_PLANTED":"20190602","CULTIVAR_NAME":" ","LATITUDE":49.268613000000002,"TREE_ID":1180,"SPECIES_NAME":"SYLVATICA","COMMON_NAME":"EUROPEAN BEECH","DIAMETER":13.300000190734863,"GENUS_NAME":"FAGUS","LONGITUDE":-123.065325}},{"type":"Feature","geometry":{"type":"Point","coordinates":[-123.06508636474609,49.268707275390625,0]},"properties":{"DATE_PLANTED":"20190602","CULTIVAR_NAME":" ","LATITUDE":49.268707999999997,"TREE_ID":1181,"SPECIES_NAME":"SYLVATICA","COMMON_NAME":"EUROPEAN BEECH","DIAMETER":19,"GENUS_NAME":"FAGUS","LONGITUDE":-123.065088}},{"type":"Feature","geometry":{"type":"Point","coordinates":[-123.06515502929688,49.268611907958984,0]},"properties":{"DATE_PLANTED":"20190602","CULTIVAR_NAME":" ","LATITUDE":49.268611,"TREE_ID":1182,"SPECIES_NAME":"SYLVATICA","COMMON_NAME":"EUROPEAN BEECH","DIAMETER":12,"GENUS_NAME":"FAGUS","LONGITUDE":-123.065158}},{"type":"Feature","geometry":{"type":"Point","coordinates":[-123.06497955322266,49.268608093261719,0]},"properties":{"DATE_PLANTED":"20190602","CULTIVAR_NAME":" ","LATITUDE":49.268608,"TREE_ID":1183,"SPECIES_NAME":"SYLVATICA","COMMON_NAME":"EUROPEAN BEECH","DIAMETER":27,"GENUS_NAME":"FAGUS","LONGITUDE":-123.064983}},{"type":"Feature","geometry":{"type":"Point","coordinates":[-123.06481170654297,49.268608093261719,0]},"properties":{"DATE_PLANTED":"20190602","CULTIVAR_NAME":" ","LATITUDE":49.268608,"TREE_ID":1184,"SPECIES_NAME":"SYLVATICA","COMMON_NAME":"EUROPEAN BEECH","DIAMETER":13.25,"GENUS_NAME":"FAGUS","LONGITUDE":-123.064809}},{"type":"Feature","geometry":{"type":"Point","coordinates":[-123.06491088867188,49.268703460693359,0]},"properties":{"DATE_PLANTED":"20190602","CULTIVAR_NAME":" ","LATITUDE":49.268704999999997,"TREE_ID":1185,"SPECIES_NAME":"SYLVATICA","COMMON_NAME":"EUROPEAN BEECH","DIAMETER":18,"GENUS_NAME":"FAGUS","LONGITUDE":-123.064908}},{"type":"Feature","geometry":{"type":"Point","coordinates":[-123.064697265625,49.268703460693359,0]},"properties":{"DATE_PLANTED":"20190602","CULTIVAR_NAME":"ATROPUNICEA","LATITUDE":49.268704999999997,"TREE_ID":1186,"SPECIES_NAME":"SYLVATICA","COMMON_NAME":"COPPER OR PURPLE BEECH","DIAMETER":22,"GENUS_NAME":"FAGUS","LONGITUDE":-123.064699}},{"type":"Feature","geometry":{"type":"Point","coordinates":[-123.064453125,49.268604278564453,0]},"properties":{"DATE_PLANTED":"19900316","CULTIVAR_NAME":" ","LATITUDE":49.268604000000003,"TREE_ID":1188,"SPECIES_NAME":"BETULUS","COMMON_NAME":"EUROPEAN HORNBEAM","DIAMETER":13,"GENUS_NAME":"CARPINUS","LONGITUDE":-123.064455}},{"type":"Feature","geometry":{"type":"Point","coordinates":[-123.06437683105469,49.268703460693359,0]},"properties":{"DATE_PLANTED":"19900316","CULTIVAR_NAME":" ","LATITUDE":49.268704999999997,"TREE_ID":1190,"SPECIES_NAME":"BETULUS","COMMON_NAME":"EUROPEAN HORNBEAM","DIAMETER":17,"GENUS_NAME":"CARPINUS","LONGITUDE":-123.064376}},{"type":"Feature","geometry":{"type":"Point","coordinates":[-123.06417083740234,49.268600463867188,0]},"properties":{"DATE_PLANTED":"19900316","CULTIVAR_NAME":" ","LATITUDE":49.268600999999997,"TREE_ID":1191,"SPECIES_NAME":"BETULUS","COMMON_NAME":"EUROPEAN HORNBEAM","DIAMETER":12,"GENUS_NAME":"CARPINUS","LONGITUDE":-123.064168}},{"type":"Feature","geometry":{"type":"Point","coordinates":[-123.06421661376953,49.268703460693359,0]},"properties":{"DATE_PLANTED":"19900316","CULTIVAR_NAME":" ","LATITUDE":49.268704,"TREE_ID":1192,"SPECIES_NAME":"BETULUS","COMMON_NAME":"EUROPEAN HORNBEAM","DIAMETER":22,"GENUS_NAME":"CARPINUS","LONGITUDE":-123.064217}},{"type":"Feature","geometry":{"type":"Point","coordinates":[-123.06404113769531,49.268699645996094,0]},"properties":{"DATE_PLANTED":"19900316","CULTIVAR_NAME":" ","LATITUDE":49.268701,"TREE_ID":1193,"SPECIES_NAME":"BETULUS","COMMON_NAME":"EUROPEAN HORNBEAM","DIAMETER":18,"GENUS_NAME":"CARPINUS","LONGITUDE":-123.064042}},{"type":"Feature","geometry":{"type":"Point","coordinates":[-123.06390380859375,49.268989562988281,0]},"properties":{"DATE_PLANTED":"19901126","CULTIVAR_NAME":" ","LATITUDE":49.268991,"TREE_ID":1194,"SPECIES_NAME":"FLORIBUNDA","COMMON_NAME":"JAPANESE FLOWERING CRABAPPLE","DIAMETER":5,"GENUS_NAME":"MALUS","LONGITUDE":-123.06390500000001}},{"type":"Feature","geometry":{"type":"Point","coordinates":[-123.06391906738281,49.268295288085938,0]},"properties":{"DATE_PLANTED":"20190602","CULTIVAR_NAME":"COLUMNARE","LATITUDE":49.268293999999997,"TREE_ID":1195,"SPECIES_NAME":"PLATANOIDES","COMMON_NAME":"COLUMNAR NORWAY MAPLE","DIAMETER":18.5,"GENUS_NAME":"ACER","LONGITUDE":-123.063917}},{"type":"Feature","geometry":{"type":"Point","coordinates":[-123.06401062011719,49.268600463867188,0]},"properties":{"DATE_PLANTED":"20190602","CULTIVAR_NAME":"KWANZAN","LATITUDE":49.268599999999999,"TREE_ID":1196,"SPECIES_NAME":"SERRULATA","COMMON_NAME":"KWANZAN FLOWERING CHERRY","DIAMETER":18,"GENUS_NAME":"PRUNUS","LONGITUDE":-123.06401099999999}},{"type":"Feature","geometry":{"type":"Point","coordinates":[-123.06344604492188,49.268695831298828,0]},"properties":{"DATE_PLANTED":"20190602","CULTIVAR_NAME":" ","LATITUDE":49.268697000000003,"TREE_ID":1197,"SPECIES_NAME":"RUBRA","COMMON_NAME":"RED OAK","DIAMETER":36,"GENUS_NAME":"QUERCUS","LONGITUDE":-123.063445}},{"type":"Feature","geometry":{"type":"Point","coordinates":[-123.06313323974609,49.268692016601562,0]},"properties":{"DATE_PLANTED":"20190602","CULTIVAR_NAME":" ","LATITUDE":49.268690999999997,"TREE_ID":1199,"SPECIES_NAME":"RUBRA","COMMON_NAME":"RED OAK","DIAMETER":42,"GENUS_NAME":"QUERCUS","LONGITUDE":-123.063132}},{"type":"Feature","geometry":{"type":"Point","coordinates":[-123.06315612792969,49.268592834472656,0]},"properties":{"DATE_PLANTED":"19900202","CULTIVAR_NAME":" ","LATITUDE":49.268593000000003,"TREE_ID":1200,"SPECIES_NAME":"EUCHLORA   X","COMMON_NAME":"CRIMEAN LINDEN","DIAMETER":15,"GENUS_NAME":"TILIA","LONGITUDE":-123.063153}},{"type":"Feature","geometry":{"type":"Point","coordinates":[-123.06278228759766,49.268692016601562,0]},"properties":{"DATE_PLANTED":"20190602","CULTIVAR_NAME":" ","LATITUDE":49.268692999999999,"TREE_ID":1203,"SPECIES_NAME":"RUBRA","COMMON_NAME":"RED OAK","DIAMETER":39,"GENUS_NAME":"QUERCUS","LONGITUDE":-123.06278399999999}},{"type":"Feature","geometry":{"type":"Point","coordinates":[-123.06277465820312,49.268592834472656,0]},"properties":{"DATE_PLANTED":"20190602","CULTIVAR_NAME":" ","LATITUDE":49.268591999999998,"TREE_ID":1206,"SPECIES_NAME":"RUBRA","COMMON_NAME":"RED OAK","DIAMETER":21,"GENUS_NAME":"QUERCUS","LONGITUDE":-123.062771}},{"type":"Feature","geometry":{"type":"Point","coordinates":[-123.06245422363281,49.268688201904297,0]},"properties":{"DATE_PLANTED":"19970407","CULTIVAR_NAME":"DEGROOT","LATITUDE":49.268689000000002,"TREE_ID":1207,"SPECIES_NAME":"CORDATA","COMMON_NAME":"DEGROOT LINDEN","DIAMETER":8,"GENUS_NAME":"TILIA","LONGITUDE":-123.062453}},{"type":"Feature","geometry":{"type":"Point","coordinates":[-123.06246185302734,49.268589019775391,0]},"properties":{"DATE_PLANTED":"20190602","CULTIVAR_NAME":" ","LATITUDE":49.268588999999999,"TREE_ID":1209,"SPECIES_NAME":"RUBRA","COMMON_NAME":"RED OAK","DIAMETER":30,"GENUS_NAME":"QUERCUS","LONGITUDE":-123.062459}},{"type":"Feature","geometry":{"type":"Point","coordinates":[-123.06212615966797,49.268585205078125,0]},"properties":{"DATE_PLANTED":"20190602","CULTIVAR_NAME":" ","LATITUDE":49.268585999999999,"TREE_ID":1211,"SPECIES_NAME":"RUBRA","COMMON_NAME":"RED OAK","DIAMETER":32,"GENUS_NAME":"QUERCUS","LONGITUDE":-123.062127}},{"type":"Feature","geometry":{"type":"Point","coordinates":[-123.06155395507812,49.268680572509766,0]},"properties":{"DATE_PLANTED":"20190602","CULTIVAR_NAME":" ","LATITUDE":49.268680000000003,"TREE_ID":1215,"SPECIES_NAME":"RUBRA","COMMON_NAME":"RED OAK","DIAMETER":35,"GENUS_NAME":"QUERCUS","LONGITUDE":-123.061556}},{"type":"Feature","geometry":{"type":"Point","coordinates":[-123.06123352050781,49.268581390380859,0]},"properties":{"DATE_PLANTED":"20190602","CULTIVAR_NAME":" ","LATITUDE":49.268583,"TREE_ID":1219,"SPECIES_NAME":"RUBRA","COMMON_NAME":"RED OAK","DIAMETER":25,"GENUS_NAME":"QUERCUS","LONGITUDE":-123.06123100000001}},{"type":"Feature","geometry":{"type":"Point","coordinates":[-123.06126403808594,49.2686767578125,0]},"properties":{"DATE_PLANTED":"20190602","CULTIVAR_NAME":" ","LATITUDE":49.268678000000001,"TREE_ID":1220,"SPECIES_NAME":"RUBRA","COMMON_NAME":"RED OAK","DIAMETER":38,"GENUS_NAME":"QUERCUS","LONGITUDE":-123.061263}},{"type":"Feature","geometry":{"type":"Point","coordinates":[-123.06089782714844,49.268581390380859,0]},"properties":{"DATE_PLANTED":"20190602","CULTIVAR_NAME":" ","LATITUDE":49.26858,"TREE_ID":1221,"SPECIES_NAME":"RUBRA","COMMON_NAME":"RED OAK","DIAMETER":32,"GENUS_NAME":"QUERCUS","LONGITUDE":-123.060897}},{"type":"Feature","geometry":{"type":"Point","coordinates":[-123.06096649169922,49.2686767578125,0]},"properties":{"DATE_PLANTED":"19900202","CULTIVAR_NAME":" ","LATITUDE":49.268676999999997,"TREE_ID":1223,"SPECIES_NAME":"EUCHLORA   X","COMMON_NAME":"CRIMEAN LINDEN","DIAMETER":12,"GENUS_NAME":"TILIA","LONGITUDE":-123.060968}},{"type":"Feature","geometry":{"type":"Point","coordinates":[-123.06056976318359,49.268581390380859,0]},"properties":{"DATE_PLANTED":"20190602","CULTIVAR_NAME":" ","LATITUDE":49.26858,"TREE_ID":1225,"SPECIES_NAME":"RUBRA","COMMON_NAME":"RED OAK","DIAMETER":32,"GENUS_NAME":"QUERCUS","LONGITUDE":-123.06056599999999}},{"type":"Feature","geometry":{"type":"Point","coordinates":[-123.06056976318359,49.2686767578125,0]},"properties":{"DATE_PLANTED":"20190602","CULTIVAR_NAME":" ","LATITUDE":49.268675000000002,"TREE_ID":1227,"SPECIES_NAME":"RUBRA","COMMON_NAME":"RED OAK","DIAMETER":41.5,"GENUS_NAME":"QUERCUS","LONGITUDE":-123.060569}},{"type":"Feature","geometry":{"type":"Point","coordinates":[-123.0601806640625,49.268672943115234,0]},"properties":{"DATE_PLANTED":"20190602","CULTIVAR_NAME":" ","LATITUDE":49.268672000000002,"TREE_ID":1230,"SPECIES_NAME":"RUBRA","COMMON_NAME":"RED OAK","DIAMETER":41,"GENUS_NAME":"QUERCUS","LONGITUDE":-123.060182}},{"type":"Feature","geometry":{"type":"Point","coordinates":[-123.07078552246094,49.269687652587891,0]},"properties":{"DATE_PLANTED":"20190602","CULTIVAR_NAME":" ","LATITUDE":49.269686999999998,"TREE_ID":69,"SPECIES_NAME":"SYLVATICA","COMMON_NAME":"EUROPEAN BEECH","DIAMETER":4,"GENUS_NAME":"FAGUS","LONGITUDE":-123.070785}},{"type":"Feature","geometry":{"type":"Point","coordinates":[-123.07062530517578,49.269691467285156,0]},"properties":{"DATE_PLANTED":"20190602","CULTIVAR_NAME":" ","LATITUDE":49.269689999999997,"TREE_ID":70,"SPECIES_NAME":"SYLVATICA","COMMON_NAME":"EUROPEAN BEECH","DIAMETER":4,"GENUS_NAME":"FAGUS","LONGITUDE":-123.070624}},{"type":"Feature","geometry":{"type":"Point","coordinates":[-123.07525634765625,49.268695831298828,0]},"properties":{"DATE_PLANTED":"19971027","CULTIVAR_NAME":"CALOCARPA","LATITUDE":49.268697000000003,"TREE_ID":1145,"SPECIES_NAME":"ZUMI","COMMON_NAME":"REDBUD CRABAPPLE","DIAMETER":5,"GENUS_NAME":"MALUS","LONGITUDE":-123.075253}},{"type":"Feature","geometry":{"type":"Point","coordinates":[-123.07101440429688,49.268653869628906,0]},"properties":{"DATE_PLANTED":"19981130","CULTIVAR_NAME":"OSAKAZUKI","LATITUDE":49.268655000000003,"TREE_ID":1147,"SPECIES_NAME":"PALMATUM","COMMON_NAME":"OSAKAZUKI JAPANESE MAPLE","DIAMETER":6.5,"GENUS_NAME":"ACER","LONGITUDE":-123.071017}},{"type":"Feature","geometry":{"type":"Point","coordinates":[-123.07082366943359,49.268756866455078,0]},"properties":{"DATE_PLANTED":"19981105","CULTIVAR_NAME":"ARMSTRONG","LATITUDE":49.268757999999998,"TREE_ID":1148,"SPECIES_NAME":"FREEMANI   X","COMMON_NAME":"ARMSTRONG RED MAPLE","DIAMETER":3,"GENUS_NAME":"ACER","LONGITUDE":-123.07082}},{"type":"Feature","geometry":{"type":"Point","coordinates":[-123.06869506835938,49.268733978271484,0]},"properties":{"DATE_PLANTED":"20190602","CULTIVAR_NAME":"KWANZAN","LATITUDE":49.268734000000002,"TREE_ID":1150,"SPECIES_NAME":"SERRULATA","COMMON_NAME":"KWANZAN FLOWERING CHERRY","DIAMETER":22.25,"GENUS_NAME":"PRUNUS","LONGITUDE":-123.068698}},{"type":"Feature","geometry":{"type":"Point","coordinates":[-123.06859588623047,49.268638610839844,0]},"properties":{"DATE_PLANTED":"20190602","CULTIVAR_NAME":"KWANZAN","LATITUDE":49.268638000000003,"TREE_ID":1151,"SPECIES_NAME":"SERRULATA","COMMON_NAME":"KWANZAN FLOWERING CHERRY","DIAMETER":23,"GENUS_NAME":"PRUNUS","LONGITUDE":-123.068595}},{"type":"Feature","geometry":{"type":"Point","coordinates":[-123.06842041015625,49.268634796142578,0]},"properties":{"DATE_PLANTED":"20190602","CULTIVAR_NAME":"KWANZAN","LATITUDE":49.268636000000001,"TREE_ID":1152,"SPECIES_NAME":"SERRULATA","COMMON_NAME":"KWANZAN FLOWERING CHERRY","DIAMETER":20.5,"GENUS_NAME":"PRUNUS","LONGITUDE":-123.06841900000001}},{"type":"Feature","geometry":{"type":"Point","coordinates":[-123.06803131103516,49.268726348876953,0]},"properties":{"DATE_PLANTED":"20190602","CULTIVAR_NAME":"KWANZAN","LATITUDE":49.268728000000003,"TREE_ID":1155,"SPECIES_NAME":"SERRULATA","COMMON_NAME":"KWANZAN FLOWERING CHERRY","DIAMETER":24,"GENUS_NAME":"PRUNUS","LONGITUDE":-123.068032}},{"type":"Feature","geometry":{"type":"Point","coordinates":[-123.06783294677734,49.268630981445312,0]},"properties":{"DATE_PLANTED":"20190602","CULTIVAR_NAME":"KWANZAN","LATITUDE":49.268630999999999,"TREE_ID":1158,"SPECIES_NAME":"SERRULATA","COMMON_NAME":"KWANZAN FLOWERING CHERRY","DIAMETER":18,"GENUS_NAME":"PRUNUS","LONGITUDE":-123.067836}},{"type":"Feature","geometry":{"type":"Point","coordinates":[-123.067626953125,49.268630981445312,0]},"properties":{"DATE_PLANTED":"20190602","CULTIVAR_NAME":"KWANZAN","LATITUDE":49.268630999999999,"TREE_ID":1160,"SPECIES_NAME":"SERRULATA","COMMON_NAME":"KWANZAN FLOWERING CHERRY","DIAMETER":24.25,"GENUS_NAME":"PRUNUS","LONGITUDE":-123.06762999999999}},{"type":"Feature","geometry":{"type":"Point","coordinates":[-123.06728363037109,49.268726348876953,0]},"properties":{"DATE_PLANTED":"20190602","CULTIVAR_NAME":"KWANZAN","LATITUDE":49.268726000000001,"TREE_ID":1164,"SPECIES_NAME":"SERRULATA","COMMON_NAME":"KWANZAN FLOWERING CHERRY","DIAMETER":17,"GENUS_NAME":"PRUNUS","LONGITUDE":-123.06728099999999}},{"type":"Feature","geometry":{"type":"Point","coordinates":[-123.06700897216797,49.268722534179688,0]},"properties":{"DATE_PLANTED":"20190602","CULTIVAR_NAME":"KWANZAN","LATITUDE":49.268723999999999,"TREE_ID":1166,"SPECIES_NAME":"SERRULATA","COMMON_NAME":"KWANZAN FLOWERING CHERRY","DIAMETER":13,"GENUS_NAME":"PRUNUS","LONGITUDE":-123.06701}},{"type":"Feature","geometry":{"type":"Point","coordinates":[-123.05821990966797,49.262825012207031,0]},"properties":{"DATE_PLANTED":"20190602","CULTIVAR_NAME":" ","LATITUDE":49.262824000000002,"TREE_ID":729,"SPECIES_NAME":"PERSICA","COMMON_NAME":"PERSIAN IRONWOOD","DIAMETER":3,"GENUS_NAME":"PARROTIA","LONGITUDE":-123.058223}},{"type":"Feature","geometry":{"type":"Point","coordinates":[-123.05827331542969,49.289276123046875,0]},"properties":{"DATE_PLANTED":"20190602","CULTIVAR_NAME":"GREEN PILLAR","LATITUDE":49.289276000000001,"TREE_ID":761,"SPECIES_NAME":"PALUSTRIS","COMMON_NAME":"GREEN PILLAR PIN OAK","DIAMETER":2,"GENUS_NAME":"QUERCUS","LONGITUDE":-123.058274}},{"type":"Feature","geometry":{"type":"Point","coordinates":[-123.07045745849609,49.269691467285156,0]},"properties":{"DATE_PLANTED":"20190602","CULTIVAR_NAME":" ","LATITUDE":49.269689999999997,"TREE_ID":71,"SPECIES_NAME":"SYLVATICA","COMMON_NAME":"EUROPEAN BEECH","DIAMETER":5,"GENUS_NAME":"FAGUS","LONGITUDE":-123.07045599999999}},{"type":"Feature","geometry":{"type":"Point","coordinates":[-123.06390380859375,49.269241333007812,0]},"properties":{"DATE_PLANTED":"20110119","CULTIVAR_NAME":"CALOCARPA","LATITUDE":49.269243000000003,"TREE_ID":330,"SPECIES_NAME":"ZUMI","COMMON_NAME":"REDBUD CRABAPPLE","DIAMETER":3,"GENUS_NAME":"MALUS","LONGITUDE":-123.0639}},{"type":"Feature","geometry":{"type":"Point","coordinates":[-123.07682800292969,49.269725799560547,0]},"properties":{"DATE_PLANTED":"20190602","CULTIVAR_NAME":" ","LATITUDE":49.269725999999999,"TREE_ID":22,"SPECIES_NAME":"BETULUS","COMMON_NAME":"EUROPEAN HORNBEAM","DIAMETER":18.5,"GENUS_NAME":"CARPINUS","LONGITUDE":-123.07682800000001}},{"type":"Feature","geometry":{"type":"Point","coordinates":[-123.07665252685547,49.269725799560547,0]},"properties":{"DATE_PLANTED":"20190602","CULTIVAR_NAME":" ","LATITUDE":49.269723999999997,"TREE_ID":24,"SPECIES_NAME":"BETULUS","COMMON_NAME":"EUROPEAN HORNBEAM","DIAMETER":25,"GENUS_NAME":"CARPINUS","LONGITUDE":-123.07665}},{"type":"Feature","geometry":{"type":"Point","coordinates":[-123.07647705078125,49.269721984863281,0]},"properties":{"DATE_PLANTED":"19970311","CULTIVAR_NAME":"FASTIGIATA","LATITUDE":49.269720999999997,"TREE_ID":25,"SPECIES_NAME":"BETULUS","COMMON_NAME":"PYRAMIDAL EUROPEAN HORNBEAM","DIAMETER":8,"GENUS_NAME":"CARPINUS","LONGITUDE":-123.07647799999999}},{"type":"Feature","geometry":{"type":"Point","coordinates":[-123.07633972167969,49.269721984863281,0]},"properties":{"DATE_PLANTED":"20190602","CULTIVAR_NAME":" ","LATITUDE":49.269722000000002,"TREE_ID":26,"SPECIES_NAME":"BETULUS","COMMON_NAME":"EUROPEAN HORNBEAM","DIAMETER":23,"GENUS_NAME":"CARPINUS","LONGITUDE":-123.076336}},{"type":"Feature","geometry":{"type":"Point","coordinates":[-123.07625579833984,49.269588470458984,0]},"properties":{"DATE_PLANTED":"20190602","CULTIVAR_NAME":"FASTIGIATA","LATITUDE":49.269587999999999,"TREE_ID":27,"SPECIES_NAME":"BETULUS","COMMON_NAME":"PYRAMIDAL EUROPEAN HORNBEAM","DIAMETER":26,"GENUS_NAME":"CARPINUS","LONGITUDE":-123.07625299999999}},{"type":"Feature","geometry":{"type":"Point","coordinates":[-123.07659149169922,49.269588470458984,0]},"properties":{"DATE_PLANTED":"20190602","CULTIVAR_NAME":"FASTIGIATA","LATITUDE":49.269590000000001,"TREE_ID":28,"SPECIES_NAME":"BETULUS","COMMON_NAME":"PYRAMIDAL EUROPEAN HORNBEAM","DIAMETER":17,"GENUS_NAME":"CARPINUS","LONGITUDE":-123.07659099999999}},{"type":"Feature","geometry":{"type":"Point","coordinates":[-123.076171875,49.269718170166016,0]},"properties":{"DATE_PLANTED":"20190602","CULTIVAR_NAME":" ","LATITUDE":49.269719000000002,"TREE_ID":29,"SPECIES_NAME":"BETULUS","COMMON_NAME":"EUROPEAN HORNBEAM","DIAMETER":21,"GENUS_NAME":"CARPINUS","LONGITUDE":-123.076172}},{"type":"Feature","geometry":{"type":"Point","coordinates":[-123.07591247558594,49.269584655761719,0]},"properties":{"DATE_PLANTED":"20190602","CULTIVAR_NAME":"FASTIGIATA","LATITUDE":49.269585999999997,"TREE_ID":31,"SPECIES_NAME":"BETULUS","COMMON_NAME":"PYRAMIDAL EUROPEAN HORNBEAM","DIAMETER":26,"GENUS_NAME":"CARPINUS","LONGITUDE":-123.075913}},{"type":"Feature","geometry":{"type":"Point","coordinates":[-123.07585144042969,49.269718170166016,0]},"properties":{"DATE_PLANTED":"20190602","CULTIVAR_NAME":" ","LATITUDE":49.269717,"TREE_ID":32,"SPECIES_NAME":"BETULUS","COMMON_NAME":"EUROPEAN HORNBEAM","DIAMETER":22,"GENUS_NAME":"CARPINUS","LONGITUDE":-123.07584799999999}},{"type":"Feature","geometry":{"type":"Point","coordinates":[-123.07522583007812,49.26971435546875,0]},"properties":{"DATE_PLANTED":"20190602","CULTIVAR_NAME":" ","LATITUDE":49.269713000000003,"TREE_ID":34,"SPECIES_NAME":"BETULUS","COMMON_NAME":"EUROPEAN HORNBEAM","DIAMETER":26,"GENUS_NAME":"CARPINUS","LONGITUDE":-123.075227}},{"type":"Feature","geometry":{"type":"Point","coordinates":[-123.07506561279297,49.269580841064453,0]},"properties":{"DATE_PLANTED":"20190602","CULTIVAR_NAME":"FASTIGIATA","LATITUDE":49.269579,"TREE_ID":35,"SPECIES_NAME":"BETULUS","COMMON_NAME":"PYRAMIDAL EUROPEAN HORNBEAM","DIAMETER":25,"GENUS_NAME":"CARPINUS","LONGITUDE":-123.075064}},{"type":"Feature","geometry":{"type":"Point","coordinates":[-123.07497406005859,49.269710540771484,0]},"properties":{"DATE_PLANTED":"20190602","CULTIVAR_NAME":" ","LATITUDE":49.269710000000003,"TREE_ID":36,"SPECIES_NAME":"BETULUS","COMMON_NAME":"EUROPEAN HORNBEAM","DIAMETER":19,"GENUS_NAME":"CARPINUS","LONGITUDE":-123.07497499999999}},{"type":"Feature","geometry":{"type":"Point","coordinates":[-123.07479095458984,49.269706726074219,0]},"properties":{"DATE_PLANTED":"20190602","CULTIVAR_NAME":" ","LATITUDE":49.269708000000001,"TREE_ID":37,"SPECIES_NAME":"BETULUS","COMMON_NAME":"EUROPEAN HORNBEAM","DIAMETER":23,"GENUS_NAME":"CARPINUS","LONGITUDE":-123.074788}},{"type":"Feature","geometry":{"type":"Point","coordinates":[-123.07486724853516,49.269577026367188,0]},"properties":{"DATE_PLANTED":"20190602","CULTIVAR_NAME":"FASTIGIATA","LATITUDE":49.269578000000003,"TREE_ID":38,"SPECIES_NAME":"BETULUS","COMMON_NAME":"PYRAMIDAL EUROPEAN HORNBEAM","DIAMETER":19,"GENUS_NAME":"CARPINUS","LONGITUDE":-123.07486400000001}},{"type":"Feature","geometry":{"type":"Point","coordinates":[-123.07405090332031,49.269702911376953,0]},"properties":{"DATE_PLANTED":"20190602","CULTIVAR_NAME":" ","LATITUDE":49.269702000000002,"TREE_ID":39,"SPECIES_NAME":"BETULUS","COMMON_NAME":"EUROPEAN HORNBEAM","DIAMETER":16,"GENUS_NAME":"CARPINUS","LONGITUDE":-123.07405199999999}},{"type":"Feature","geometry":{"type":"Point","coordinates":[-123.07450103759766,49.269577026367188,0]},"properties":{"DATE_PLANTED":"20190602","CULTIVAR_NAME":"FASTIGIATA","LATITUDE":49.269576000000001,"TREE_ID":40,"SPECIES_NAME":"BETULUS","COMMON_NAME":"PYRAMIDAL EUROPEAN HORNBEAM","DIAMETER":26,"GENUS_NAME":"CARPINUS","LONGITUDE":-123.07450300000001}},{"type":"Feature","geometry":{"type":"Point","coordinates":[-123.07410430908203,49.269573211669922,0]},"properties":{"DATE_PLANTED":"20190602","CULTIVAR_NAME":"FASTIGIATA","LATITUDE":49.269571999999997,"TREE_ID":41,"SPECIES_NAME":"BETULUS","COMMON_NAME":"PYRAMIDAL EUROPEAN HORNBEAM","DIAMETER":22,"GENUS_NAME":"CARPINUS","LONGITUDE":-123.074102}},{"type":"Feature","geometry":{"type":"Point","coordinates":[-123.07426452636719,49.269573211669922,0]},"properties":{"DATE_PLANTED":"20190602","CULTIVAR_NAME":"FASTIGIATA","LATITUDE":49.269573999999999,"TREE_ID":42,"SPECIES_NAME":"BETULUS","COMMON_NAME":"PYRAMIDAL EUROPEAN HORNBEAM","DIAMETER":19,"GENUS_NAME":"CARPINUS","LONGITUDE":-123.07426700000001}},{"type":"Feature","geometry":{"type":"Point","coordinates":[-123.07433319091797,49.269706726074219,0]},"properties":{"DATE_PLANTED":"20190602","CULTIVAR_NAME":" ","LATITUDE":49.269705000000002,"TREE_ID":44,"SPECIES_NAME":"BETULUS","COMMON_NAME":"EUROPEAN HORNBEAM","DIAMETER":6,"GENUS_NAME":"CARPINUS","LONGITUDE":-123.074333}},{"type":"Feature","geometry":{"type":"Point","coordinates":[-123.07369232177734,49.269699096679688,0]},"properties":{"DATE_PLANTED":"20190602","CULTIVAR_NAME":" ","LATITUDE":49.269700999999998,"TREE_ID":45,"SPECIES_NAME":"BETULUS","COMMON_NAME":"EUROPEAN HORNBEAM","DIAMETER":18,"GENUS_NAME":"CARPINUS","LONGITUDE":-123.073694}},{"type":"Feature","geometry":{"type":"Point","coordinates":[-123.07393646240234,49.269573211669922,0]},"properties":{"DATE_PLANTED":"20190602","CULTIVAR_NAME":"FASTIGIATA","LATITUDE":49.269571999999997,"TREE_ID":46,"SPECIES_NAME":"BETULUS","COMMON_NAME":"PYRAMIDAL EUROPEAN HORNBEAM","DIAMETER":22,"GENUS_NAME":"CARPINUS","LONGITUDE":-123.07393399999999}},{"type":"Feature","geometry":{"type":"Point","coordinates":[-123.07330322265625,49.269565582275391,0]},"properties":{"DATE_PLANTED":"20190602","CULTIVAR_NAME":"FASTIGIATA","LATITUDE":49.269564000000003,"TREE_ID":48,"SPECIES_NAME":"BETULUS","COMMON_NAME":"PYRAMIDAL EUROPEAN HORNBEAM","DIAMETER":20,"GENUS_NAME":"CARPINUS","LONGITUDE":-123.073302}},{"type":"Feature","geometry":{"type":"Point","coordinates":[-123.07274627685547,49.269561767578125,0]},"properties":{"DATE_PLANTED":"20190602","CULTIVAR_NAME":"FASTIGIATA","LATITUDE":49.269562000000001,"TREE_ID":49,"SPECIES_NAME":"BETULUS","COMMON_NAME":"PYRAMIDAL EUROPEAN HORNBEAM","DIAMETER":18,"GENUS_NAME":"CARPINUS","LONGITUDE":-123.072743}},{"type":"Feature","geometry":{"type":"Point","coordinates":[-123.07291412353516,49.269565582275391,0]},"properties":{"DATE_PLANTED":"20190602","CULTIVAR_NAME":"FASTIGIATA","LATITUDE":49.269564000000003,"TREE_ID":50,"SPECIES_NAME":"BETULUS","COMMON_NAME":"PYRAMIDAL EUROPEAN HORNBEAM","DIAMETER":20,"GENUS_NAME":"CARPINUS","LONGITUDE":-123.072917}},{"type":"Feature","geometry":{"type":"Point","coordinates":[-123.07270812988281,49.269691467285156,0]},"properties":{"DATE_PLANTED":"20190602","CULTIVAR_NAME":" ","LATITUDE":49.269691000000002,"TREE_ID":52,"SPECIES_NAME":"BETULUS","COMMON_NAME":"EUROPEAN HORNBEAM","DIAMETER":20,"GENUS_NAME":"CARPINUS","LONGITUDE":-123.072706}},{"type":"Feature","geometry":{"type":"Point","coordinates":[-123.07239532470703,49.269557952880859,0]},"properties":{"DATE_PLANTED":"20190602","CULTIVAR_NAME":"FASTIGIATA","LATITUDE":49.269556999999999,"TREE_ID":53,"SPECIES_NAME":"BETULUS","COMMON_NAME":"PYRAMIDAL EUROPEAN HORNBEAM","DIAMETER":20,"GENUS_NAME":"CARPINUS","LONGITUDE":-123.072394}},{"type":"Feature","geometry":{"type":"Point","coordinates":[-123.07254028320312,49.269691467285156,0]},"properties":{"DATE_PLANTED":"20190602","CULTIVAR_NAME":" ","LATITUDE":49.269689999999997,"TREE_ID":54,"SPECIES_NAME":"BETULUS","COMMON_NAME":"EUROPEAN HORNBEAM","DIAMETER":21,"GENUS_NAME":"CARPINUS","LONGITUDE":-123.07253799999999}},{"type":"Feature","geometry":{"type":"Point","coordinates":[-123.07234191894531,49.269691467285156,0]},"properties":{"DATE_PLANTED":"20190602","CULTIVAR_NAME":" ","LATITUDE":49.269689999999997,"TREE_ID":55,"SPECIES_NAME":"BETULUS","COMMON_NAME":"EUROPEAN HORNBEAM","DIAMETER":18,"GENUS_NAME":"CARPINUS","LONGITUDE":-123.07234200000001}},{"type":"Feature","geometry":{"type":"Point","coordinates":[-123.07218170166016,49.269554138183594,0]},"properties":{"DATE_PLANTED":"20190602","CULTIVAR_NAME":"FASTIGIATA","LATITUDE":49.269556000000001,"TREE_ID":56,"SPECIES_NAME":"BETULUS","COMMON_NAME":"PYRAMIDAL EUROPEAN HORNBEAM","DIAMETER":26,"GENUS_NAME":"CARPINUS","LONGITUDE":-123.07217799999999}},{"type":"Feature","geometry":{"type":"Point","coordinates":[-123.07207489013672,49.269691467285156,0]},"properties":{"DATE_PLANTED":"20190602","CULTIVAR_NAME":" ","LATITUDE":49.269691000000002,"TREE_ID":57,"SPECIES_NAME":"BETULUS","COMMON_NAME":"EUROPEAN HORNBEAM","DIAMETER":18,"GENUS_NAME":"CARPINUS","LONGITUDE":-123.072073}},{"type":"Feature","geometry":{"type":"Point","coordinates":[-123.07125091552734,49.269691467285156,0]},"properties":{"DATE_PLANTED":"20190602","CULTIVAR_NAME":" ","LATITUDE":49.269692999999997,"TREE_ID":62,"SPECIES_NAME":"SYLVATICA","COMMON_NAME":"EUROPEAN BEECH","DIAMETER":5,"GENUS_NAME":"FAGUS","LONGITUDE":-123.071251}},{"type":"Feature","geometry":{"type":"Point","coordinates":[-123.07075500488281,49.269542694091797,0]},"properties":{"DATE_PLANTED":"20190602","CULTIVAR_NAME":" ","LATITUDE":49.269540999999997,"TREE_ID":64,"SPECIES_NAME":"SYLVATICA","COMMON_NAME":"EUROPEAN BEECH","DIAMETER":8,"GENUS_NAME":"FAGUS","LONGITUDE":-123.070758}},{"type":"Feature","geometry":{"type":"Point","coordinates":[-123.07006072998047,49.269687652587891,0]},"properties":{"DATE_PLANTED":"20190602","CULTIVAR_NAME":" ","LATITUDE":49.269686,"TREE_ID":67,"SPECIES_NAME":"SYLVATICA","COMMON_NAME":"EUROPEAN BEECH","DIAMETER":7,"GENUS_NAME":"FAGUS","LONGITUDE":-123.07005700000001}},{"type":"Feature","geometry":{"type":"Point","coordinates":[-123.07093811035156,49.269687652587891,0]},"properties":{"DATE_PLANTED":"20190602","CULTIVAR_NAME":" ","LATITUDE":49.269688000000002,"TREE_ID":68,"SPECIES_NAME":"SYLVATICA","COMMON_NAME":"EUROPEAN BEECH","DIAMETER":3.5,"GENUS_NAME":"FAGUS","LONGITUDE":-123.070939}},{"type":"Feature","geometry":{"type":"Point","coordinates":[-123.06343841552734,49.269485473632812,0]},"properties":{"DATE_PLANTED":"20190602","CULTIVAR_NAME":"FASTIGIATA","LATITUDE":49.269486999999998,"TREE_ID":142,"SPECIES_NAME":"SYLVATICA","COMMON_NAME":"PYRAMIDAL BEECH","DIAMETER":18,"GENUS_NAME":"FAGUS","LONGITUDE":-123.06343699999999}},{"type":"Feature","geometry":{"type":"Point","coordinates":[-123.06324768066406,49.269615173339844,0]},"properties":{"DATE_PLANTED":"20190602","CULTIVAR_NAME":"FASTIGIATA","LATITUDE":49.269615999999999,"TREE_ID":143,"SPECIES_NAME":"SYLVATICA","COMMON_NAME":"PYRAMIDAL BEECH","DIAMETER":12,"GENUS_NAME":"FAGUS","LONGITUDE":-123.06324600000001}},{"type":"Feature","geometry":{"type":"Point","coordinates":[-123.06324768066406,49.269485473632812,0]},"properties":{"DATE_PLANTED":"20190602","CULTIVAR_NAME":"FASTIGIATA","LATITUDE":49.269486000000001,"TREE_ID":144,"SPECIES_NAME":"SYLVATICA","COMMON_NAME":"PYRAMIDAL BEECH","DIAMETER":12,"GENUS_NAME":"FAGUS","LONGITUDE":-123.063249}},{"type":"Feature","geometry":{"type":"Point","coordinates":[-123.06307220458984,49.269615173339844,0]},"properties":{"DATE_PLANTED":"20190602","CULTIVAR_NAME":"FASTIGIATA","LATITUDE":49.269615999999999,"TREE_ID":145,"SPECIES_NAME":"SYLVATICA","COMMON_NAME":"PYRAMIDAL BEECH","DIAMETER":12,"GENUS_NAME":"FAGUS","LONGITUDE":-123.063075}},{"type":"Feature","geometry":{"type":"Point","coordinates":[-123.06305694580078,49.269485473632812,0]},"properties":{"DATE_PLANTED":"20190602","CULTIVAR_NAME":"FASTIGIATA","LATITUDE":49.269486000000001,"TREE_ID":146,"SPECIES_NAME":"SYLVATICA","COMMON_NAME":"PYRAMIDAL BEECH","DIAMETER":12,"GENUS_NAME":"FAGUS","LONGITUDE":-123.06305999999999}},{"type":"Feature","geometry":{"type":"Point","coordinates":[-123.06289672851562,49.269481658935547,0]},"properties":{"DATE_PLANTED":"20190602","CULTIVAR_NAME":"FASTIGIATA","LATITUDE":49.269482000000004,"TREE_ID":147,"SPECIES_NAME":"SYLVATICA","COMMON_NAME":"PYRAMIDAL BEECH","DIAMETER":12,"GENUS_NAME":"FAGUS","LONGITUDE":-123.0629}},{"type":"Feature","geometry":{"type":"Point","coordinates":[-123.06290435791016,49.269615173339844,0]},"properties":{"DATE_PLANTED":"20190602","CULTIVAR_NAME":"FASTIGIATA","LATITUDE":49.269615000000002,"TREE_ID":148,"SPECIES_NAME":"SYLVATICA","COMMON_NAME":"PYRAMIDAL BEECH","DIAMETER":6,"GENUS_NAME":"FAGUS","LONGITUDE":-123.06290799999999}},{"type":"Feature","geometry":{"type":"Point","coordinates":[-123.06272125244141,49.269481658935547,0]},"properties":{"DATE_PLANTED":"20190602","CULTIVAR_NAME":"FASTIGIATA","LATITUDE":49.269483000000001,"TREE_ID":149,"SPECIES_NAME":"SYLVATICA","COMMON_NAME":"PYRAMIDAL BEECH","DIAMETER":12,"GENUS_NAME":"FAGUS","LONGITUDE":-123.062721}},{"type":"Feature","geometry":{"type":"Point","coordinates":[-123.06259155273438,49.269611358642578,0]},"properties":{"DATE_PLANTED":"20190602","CULTIVAR_NAME":"FASTIGIATA","LATITUDE":49.269612000000002,"TREE_ID":155,"SPECIES_NAME":"SYLVATICA","COMMON_NAME":"PYRAMIDAL BEECH","DIAMETER":14,"GENUS_NAME":"FAGUS","LONGITUDE":-123.06258800000001}},{"type":"Feature","geometry":{"type":"Point","coordinates":[-123.06242370605469,49.269477844238281,0]},"properties":{"DATE_PLANTED":"19970305","CULTIVAR_NAME":"DAWYCKII","LATITUDE":49.269477999999999,"TREE_ID":163,"SPECIES_NAME":"SYLVATICA","COMMON_NAME":"DAWYCK'S BEECH","DIAMETER":3,"GENUS_NAME":"FAGUS","LONGITUDE":-123.062425}},{"type":"Feature","geometry":{"type":"Point","coordinates":[-123.06224822998047,49.269611358642578,0]},"properties":{"DATE_PLANTED":"20190602","CULTIVAR_NAME":"FASTIGIATA","LATITUDE":49.26961,"TREE_ID":164,"SPECIES_NAME":"SYLVATICA","COMMON_NAME":"PYRAMIDAL BEECH","DIAMETER":24,"GENUS_NAME":"FAGUS","LONGITUDE":-123.06224899999999}},{"type":"Feature","geometry":{"type":"Point","coordinates":[-123.06207275390625,49.269611358642578,0]},"properties":{"DATE_PLANTED":"20190602","CULTIVAR_NAME":"FASTIGIATA","LATITUDE":49.26961,"TREE_ID":166,"SPECIES_NAME":"SYLVATICA","COMMON_NAME":"PYRAMIDAL BEECH","DIAMETER":18,"GENUS_NAME":"FAGUS","LONGITUDE":-123.062076}},{"type":"Feature","geometry":{"type":"Point","coordinates":[-123.06179809570312,49.269901275634766,0]},"properties":{"DATE_PLANTED":"19981106","CULTIVAR_NAME":"CALOCARPA","LATITUDE":49.269902999999999,"TREE_ID":170,"SPECIES_NAME":"ZUMI","COMMON_NAME":"REDBUD CRABAPPLE","DIAMETER":4.5,"GENUS_NAME":"MALUS","LONGITUDE":-123.06179899999999}},{"type":"Feature","geometry":{"type":"Point","coordinates":[-123.06180572509766,49.269783020019531,0]},"properties":{"DATE_PLANTED":"19981106","CULTIVAR_NAME":"CALOCARPA","LATITUDE":49.269781999999999,"TREE_ID":171,"SPECIES_NAME":"ZUMI","COMMON_NAME":"REDBUD CRABAPPLE","DIAMETER":6,"GENUS_NAME":"MALUS","LONGITUDE":-123.061802}},{"type":"Feature","geometry":{"type":"Point","coordinates":[-123.06180572509766,49.269691467285156,0]},"properties":{"DATE_PLANTED":"19981109","CULTIVAR_NAME":"CALOCARPA","LATITUDE":49.269691999999999,"TREE_ID":172,"SPECIES_NAME":"ZUMI","COMMON_NAME":"REDBUD CRABAPPLE","DIAMETER":4.5,"GENUS_NAME":"MALUS","LONGITUDE":-123.061808}},{"type":"Feature","geometry":{"type":"Point","coordinates":[-123.06003570556641,49.269237518310547,0]},"properties":{"DATE_PLANTED":"20190602","CULTIVAR_NAME":"KWANZAN","LATITUDE":49.269238999999999,"TREE_ID":177,"SPECIES_NAME":"SERRULATA","COMMON_NAME":"KWANZAN FLOWERING CHERRY","DIAMETER":32.5,"GENUS_NAME":"PRUNUS","LONGITUDE":-123.060033}},{"type":"Feature","geometry":{"type":"Point","coordinates":[-123.06002807617188,49.269371032714844,0]},"properties":{"DATE_PLANTED":"20190602","CULTIVAR_NAME":"KWANZAN","LATITUDE":49.269371999999997,"TREE_ID":178,"SPECIES_NAME":"SERRULATA","COMMON_NAME":"KWANZAN FLOWERING CHERRY","DIAMETER":34,"GENUS_NAME":"PRUNUS","LONGITUDE":-123.060031}},{"type":"Feature","geometry":{"type":"Point","coordinates":[-123.05988311767578,49.269325256347656,0]},"properties":{"DATE_PLANTED":"20190602","CULTIVAR_NAME":"KWANZAN","LATITUDE":49.269326,"TREE_ID":185,"SPECIES_NAME":"SERRULATA","COMMON_NAME":"KWANZAN FLOWERING CHERRY","DIAMETER":34.5,"GENUS_NAME":"PRUNUS","LONGITUDE":-123.05988000000001}},{"type":"Feature","geometry":{"type":"Point","coordinates":[-123.05988311767578,49.269191741943359,0]},"properties":{"DATE_PLANTED":"20190602","CULTIVAR_NAME":"KWANZAN","LATITUDE":49.269190999999999,"TREE_ID":186,"SPECIES_NAME":"SERRULATA","COMMON_NAME":"KWANZAN FLOWERING CHERRY","DIAMETER":30,"GENUS_NAME":"PRUNUS","LONGITUDE":-123.059883}},{"type":"Feature","geometry":{"type":"Point","coordinates":[-123.05986785888672,49.269886016845703,0]},"properties":{"DATE_PLANTED":"20190602","CULTIVAR_NAME":"SHIROTAE","LATITUDE":49.269886999999997,"TREE_ID":187,"SPECIES_NAME":"SERRULATA","COMMON_NAME":"SHIROTAE(MT FUJI) CHERRY","DIAMETER":25.5,"GENUS_NAME":"PRUNUS","LONGITUDE":-123.05987}},{"type":"Feature","geometry":{"type":"Point","coordinates":[-123.05986785888672,49.269771575927734,0]},"properties":{"DATE_PLANTED":"20190602","CULTIVAR_NAME":"SHIROTAE","LATITUDE":49.269773000000001,"TREE_ID":188,"SPECIES_NAME":"SERRULATA","COMMON_NAME":"SHIROTAE(MT FUJI) CHERRY","DIAMETER":23,"GENUS_NAME":"PRUNUS","LONGITUDE":-123.05986900000001}},{"type":"Feature","geometry":{"type":"Point","coordinates":[-123.06695556640625,49.268623352050781,0]},"properties":{"DATE_PLANTED":"20190602","CULTIVAR_NAME":"KWANZAN","LATITUDE":49.268622999999998,"TREE_ID":1167,"SPECIES_NAME":"SERRULATA","COMMON_NAME":"KWANZAN FLOWERING CHERRY","DIAMETER":37.75,"GENUS_NAME":"PRUNUS","LONGITUDE":-123.066956}},{"type":"Feature","geometry":{"type":"Point","coordinates":[-123.07032012939453,49.269691467285156,0]},"properties":{"DATE_PLANTED":"20190602","CULTIVAR_NAME":" ","LATITUDE":49.269692999999997,"TREE_ID":73,"SPECIES_NAME":"SYLVATICA","COMMON_NAME":"EUROPEAN BEECH","DIAMETER":4,"GENUS_NAME":"FAGUS","LONGITUDE":-123.07032100000001}},{"type":"Feature","geometry":{"type":"Point","coordinates":[-123.07018280029297,49.269691467285156,0]},"properties":{"DATE_PLANTED":"20190602","CULTIVAR_NAME":" ","LATITUDE":49.269689999999997,"TREE_ID":74,"SPECIES_NAME":"SYLVATICA","COMMON_NAME":"EUROPEAN BEECH","DIAMETER":3,"GENUS_NAME":"FAGUS","LONGITUDE":-123.07018100000001}},{"type":"Feature","geometry":{"type":"Point","coordinates":[-123.06053161621094,49.273933410644531,0]},"properties":{"DATE_PLANTED":"20190602","CULTIVAR_NAME":" ","LATITUDE":49.273932000000002,"TREE_ID":2001,"SPECIES_NAME":"SPECIES","COMMON_NAME":"CHERRY, PLUM OR PEACH SPECIES","DIAMETER":4,"GENUS_NAME":"PRUNUS","LONGITUDE":-123.06053}},{"type":"Feature","geometry":{"type":"Point","coordinates":[-123.06919860839844,49.269527435302734,0]},"properties":{"DATE_PLANTED":"20190602","CULTIVAR_NAME":" ","LATITUDE":49.269526999999997,"TREE_ID":77,"SPECIES_NAME":"SYLVATICA","COMMON_NAME":"EUROPEAN BEECH","DIAMETER":8,"GENUS_NAME":"FAGUS","LONGITUDE":-123.069198}},{"type":"Feature","geometry":{"type":"Point","coordinates":[-123.06906890869141,49.269527435302734,0]},"properties":{"DATE_PLANTED":"20190602","CULTIVAR_NAME":" ","LATITUDE":49.269525999999999,"TREE_ID":81,"SPECIES_NAME":"SYLVATICA","COMMON_NAME":"EUROPEAN BEECH","DIAMETER":7,"GENUS_NAME":"FAGUS","LONGITUDE":-123.06907200000001}},{"type":"Feature","geometry":{"type":"Point","coordinates":[-123.06890869140625,49.269672393798828,0]},"properties":{"DATE_PLANTED":"20190602","CULTIVAR_NAME":" ","LATITUDE":49.269674000000002,"TREE_ID":82,"SPECIES_NAME":"SYLVATICA","COMMON_NAME":"EUROPEAN BEECH","DIAMETER":10,"GENUS_NAME":"FAGUS","LONGITUDE":-123.068909}},{"type":"Feature","geometry":{"type":"Point","coordinates":[-123.06870269775391,49.269672393798828,0]},"properties":{"DATE_PLANTED":"20190602","CULTIVAR_NAME":" ","LATITUDE":49.269672,"TREE_ID":84,"SPECIES_NAME":"SYLVATICA","COMMON_NAME":"EUROPEAN BEECH","DIAMETER":15,"GENUS_NAME":"FAGUS","LONGITUDE":-123.068702}},{"type":"Feature","geometry":{"type":"Point","coordinates":[-123.068603515625,49.269523620605469,0]},"properties":{"DATE_PLANTED":"20190602","CULTIVAR_NAME":" ","LATITUDE":49.269523,"TREE_ID":85,"SPECIES_NAME":"SYLVATICA","COMMON_NAME":"EUROPEAN BEECH","DIAMETER":18,"GENUS_NAME":"FAGUS","LONGITUDE":-123.068607}},{"type":"Feature","geometry":{"type":"Point","coordinates":[-123.06832885742188,49.269523620605469,0]},"properties":{"DATE_PLANTED":"20190602","CULTIVAR_NAME":" ","LATITUDE":49.269525000000002,"TREE_ID":87,"SPECIES_NAME":"SYLVATICA","COMMON_NAME":"EUROPEAN BEECH","DIAMETER":4,"GENUS_NAME":"FAGUS","LONGITUDE":-123.06832900000001}},{"type":"Feature","geometry":{"type":"Point","coordinates":[-123.06844329833984,49.269672393798828,0]},"properties":{"DATE_PLANTED":"20190602","CULTIVAR_NAME":" ","LATITUDE":49.269674000000002,"TREE_ID":88,"SPECIES_NAME":"SYLVATICA","COMMON_NAME":"EUROPEAN BEECH","DIAMETER":9,"GENUS_NAME":"FAGUS","LONGITUDE":-123.06844100000001}},{"type":"Feature","geometry":{"type":"Point","coordinates":[-123.06830596923828,49.269672393798828,0]},"properties":{"DATE_PLANTED":"20190602","CULTIVAR_NAME":" ","LATITUDE":49.269674000000002,"TREE_ID":89,"SPECIES_NAME":"SYLVATICA","COMMON_NAME":"EUROPEAN BEECH","DIAMETER":20,"GENUS_NAME":"FAGUS","LONGITUDE":-123.068308}},{"type":"Feature","geometry":{"type":"Point","coordinates":[-123.06798553466797,49.269523620605469,0]},"properties":{"DATE_PLANTED":"20190602","CULTIVAR_NAME":"FASTIGIATA","LATITUDE":49.269522000000002,"TREE_ID":90,"SPECIES_NAME":"BETULUS","COMMON_NAME":"PYRAMIDAL EUROPEAN HORNBEAM","DIAMETER":28,"GENUS_NAME":"CARPINUS","LONGITUDE":-123.06798499999999}},{"type":"Feature","geometry":{"type":"Point","coordinates":[-123.06781768798828,49.269519805908203,0]},"properties":{"DATE_PLANTED":"20190602","CULTIVAR_NAME":"FASTIGIATA","LATITUDE":49.26952,"TREE_ID":92,"SPECIES_NAME":"BETULUS","COMMON_NAME":"PYRAMIDAL EUROPEAN HORNBEAM","DIAMETER":26.5,"GENUS_NAME":"CARPINUS","LONGITUDE":-123.06781599999999}},{"type":"Feature","geometry":{"type":"Point","coordinates":[-123.06766510009766,49.269519805908203,0]},"properties":{"DATE_PLANTED":"20190602","CULTIVAR_NAME":"FASTIGIATA","LATITUDE":49.269519000000003,"TREE_ID":93,"SPECIES_NAME":"BETULUS","COMMON_NAME":"PYRAMIDAL EUROPEAN HORNBEAM","DIAMETER":17,"GENUS_NAME":"CARPINUS","LONGITUDE":-123.067663}},{"type":"Feature","geometry":{"type":"Point","coordinates":[-123.06803894042969,49.269660949707031,0]},"properties":{"DATE_PLANTED":"20190602","CULTIVAR_NAME":" ","LATITUDE":49.269661999999997,"TREE_ID":94,"SPECIES_NAME":"SYLVATICA","COMMON_NAME":"EUROPEAN BEECH","DIAMETER":19,"GENUS_NAME":"FAGUS","LONGITUDE":-123.068037}},{"type":"Feature","geometry":{"type":"Point","coordinates":[-123.06791687011719,49.269657135009766,0]},"properties":{"DATE_PLANTED":"20190602","CULTIVAR_NAME":" ","LATITUDE":49.269658999999997,"TREE_ID":95,"SPECIES_NAME":"SYLVATICA","COMMON_NAME":"EUROPEAN BEECH","DIAMETER":18,"GENUS_NAME":"FAGUS","LONGITUDE":-123.067915}},{"type":"Feature","geometry":{"type":"Point","coordinates":[-123.06748199462891,49.269515991210938,0]},"properties":{"DATE_PLANTED":"20190602","CULTIVAR_NAME":"FASTIGIATA","LATITUDE":49.269516000000003,"TREE_ID":96,"SPECIES_NAME":"BETULUS","COMMON_NAME":"PYRAMIDAL EUROPEAN HORNBEAM","DIAMETER":18,"GENUS_NAME":"CARPINUS","LONGITUDE":-123.067481}},{"type":"Feature","geometry":{"type":"Point","coordinates":[-123.06748962402344,49.269645690917969,0]},"properties":{"DATE_PLANTED":"19970306","CULTIVAR_NAME":"FASTIGIATA","LATITUDE":49.269646999999999,"TREE_ID":97,"SPECIES_NAME":"BETULUS","COMMON_NAME":"PYRAMIDAL EUROPEAN HORNBEAM","DIAMETER":6,"GENUS_NAME":"CARPINUS","LONGITUDE":-123.06749000000001}},{"type":"Feature","geometry":{"type":"Point","coordinates":[-123.06735229492188,49.269645690917969,0]},"properties":{"DATE_PLANTED":"19970306","CULTIVAR_NAME":"FASTIGIATA","LATITUDE":49.269646000000002,"TREE_ID":99,"SPECIES_NAME":"BETULUS","COMMON_NAME":"PYRAMIDAL EUROPEAN HORNBEAM","DIAMETER":8,"GENUS_NAME":"CARPINUS","LONGITUDE":-123.06735500000001}},{"type":"Feature","geometry":{"type":"Point","coordinates":[-123.06719207763672,49.269645690917969,0]},"properties":{"DATE_PLANTED":"20190602","CULTIVAR_NAME":"FASTIGIATA","LATITUDE":49.269646000000002,"TREE_ID":100,"SPECIES_NAME":"BETULUS","COMMON_NAME":"PYRAMIDAL EUROPEAN HORNBEAM","DIAMETER":17,"GENUS_NAME":"CARPINUS","LONGITUDE":-123.067189}},{"type":"Feature","geometry":{"type":"Point","coordinates":[-123.06729888916016,49.269515991210938,0]},"properties":{"DATE_PLANTED":"20190602","CULTIVAR_NAME":"FASTIGIATA","LATITUDE":49.269516000000003,"TREE_ID":101,"SPECIES_NAME":"BETULUS","COMMON_NAME":"PYRAMIDAL EUROPEAN HORNBEAM","DIAMETER":25,"GENUS_NAME":"CARPINUS","LONGITUDE":-123.067297}},{"type":"Feature","geometry":{"type":"Point","coordinates":[-123.06710052490234,49.269512176513672,0]},"properties":{"DATE_PLANTED":"20190602","CULTIVAR_NAME":"FASTIGIATA","LATITUDE":49.269514000000001,"TREE_ID":102,"SPECIES_NAME":"BETULUS","COMMON_NAME":"PYRAMIDAL EUROPEAN HORNBEAM","DIAMETER":29,"GENUS_NAME":"CARPINUS","LONGITUDE":-123.067103}},{"type":"Feature","geometry":{"type":"Point","coordinates":[-123.06695556640625,49.269645690917969,0]},"properties":{"DATE_PLANTED":"20190602","CULTIVAR_NAME":" ","LATITUDE":49.269646000000002,"TREE_ID":103,"SPECIES_NAME":"SYLVATICA","COMMON_NAME":"EUROPEAN BEECH","DIAMETER":16,"GENUS_NAME":"FAGUS","LONGITUDE":-123.06695499999999}},{"type":"Feature","geometry":{"type":"Point","coordinates":[-123.06689453125,49.269512176513672,0]},"properties":{"DATE_PLANTED":"20190602","CULTIVAR_NAME":"FASTIGIATA","LATITUDE":49.269511999999999,"TREE_ID":104,"SPECIES_NAME":"BETULUS","COMMON_NAME":"PYRAMIDAL EUROPEAN HORNBEAM","DIAMETER":24,"GENUS_NAME":"CARPINUS","LONGITUDE":-123.06689799999999}},{"type":"Feature","geometry":{"type":"Point","coordinates":[-123.06679534912109,49.269641876220703,0]},"properties":{"DATE_PLANTED":"20190602","CULTIVAR_NAME":" ","LATITUDE":49.269643000000002,"TREE_ID":105,"SPECIES_NAME":"SYLVATICA","COMMON_NAME":"EUROPEAN BEECH","DIAMETER":14.5,"GENUS_NAME":"FAGUS","LONGITUDE":-123.066793}},{"type":"Feature","geometry":{"type":"Point","coordinates":[-123.06661224365234,49.269641876220703,0]},"properties":{"DATE_PLANTED":"20190602","CULTIVAR_NAME":" ","LATITUDE":49.269640000000003,"TREE_ID":106,"SPECIES_NAME":"SYLVATICA","COMMON_NAME":"EUROPEAN BEECH","DIAMETER":18,"GENUS_NAME":"FAGUS","LONGITUDE":-123.066613}},{"type":"Feature","geometry":{"type":"Point","coordinates":[-123.06671142578125,49.269508361816406,0]},"properties":{"DATE_PLANTED":"20190602","CULTIVAR_NAME":"FASTIGIATA","LATITUDE":49.269508000000002,"TREE_ID":107,"SPECIES_NAME":"BETULUS","COMMON_NAME":"PYRAMIDAL EUROPEAN HORNBEAM","DIAMETER":27,"GENUS_NAME":"CARPINUS","LONGITUDE":-123.066715}},{"type":"Feature","geometry":{"type":"Point","coordinates":[-123.06647491455078,49.269641876220703,0]},"properties":{"DATE_PLANTED":"20190602","CULTIVAR_NAME":" ","LATITUDE":49.269640000000003,"TREE_ID":108,"SPECIES_NAME":"SYLVATICA","COMMON_NAME":"EUROPEAN BEECH","DIAMETER":16,"GENUS_NAME":"FAGUS","LONGITUDE":-123.06647700000001}},{"type":"Feature","geometry":{"type":"Point","coordinates":[-123.06656646728516,49.269508361816406,0]},"properties":{"DATE_PLANTED":"20190602","CULTIVAR_NAME":"FASTIGIATA","LATITUDE":49.269508000000002,"TREE_ID":109,"SPECIES_NAME":"BETULUS","COMMON_NAME":"PYRAMIDAL EUROPEAN HORNBEAM","DIAMETER":33,"GENUS_NAME":"CARPINUS","LONGITUDE":-123.066563}},{"type":"Feature","geometry":{"type":"Point","coordinates":[-123.0662841796875,49.269504547119141,0]},"properties":{"DATE_PLANTED":"20190602","CULTIVAR_NAME":"FASTIGIATA","LATITUDE":49.269506,"TREE_ID":110,"SPECIES_NAME":"BETULUS","COMMON_NAME":"PYRAMIDAL EUROPEAN HORNBEAM","DIAMETER":24,"GENUS_NAME":"CARPINUS","LONGITUDE":-123.06628499999999}},{"type":"Feature","geometry":{"type":"Point","coordinates":[-123.06629943847656,49.269638061523438,0]},"properties":{"DATE_PLANTED":"20190602","CULTIVAR_NAME":" ","LATITUDE":49.269637000000003,"TREE_ID":111,"SPECIES_NAME":"SPECIES","COMMON_NAME":"HORNBEAM SPECIES","DIAMETER":14,"GENUS_NAME":"CARPINUS","LONGITUDE":-123.066299}},{"type":"Feature","geometry":{"type":"Point","coordinates":[-123.06600952148438,49.269638061523438,0]},"properties":{"DATE_PLANTED":"20190602","CULTIVAR_NAME":" ","LATITUDE":49.269638,"TREE_ID":112,"SPECIES_NAME":"SYLVATICA","COMMON_NAME":"EUROPEAN BEECH","DIAMETER":12,"GENUS_NAME":"FAGUS","LONGITUDE":-123.06601000000001}},{"type":"Feature","geometry":{"type":"Point","coordinates":[-123.06528472900391,49.269630432128906,0]},"properties":{"DATE_PLANTED":"20190602","CULTIVAR_NAME":"FASTIGIATA","LATITUDE":49.269629999999999,"TREE_ID":118,"SPECIES_NAME":"SYLVATICA","COMMON_NAME":"PYRAMIDAL BEECH","DIAMETER":24,"GENUS_NAME":"FAGUS","LONGITUDE":-123.06528299999999}},{"type":"Feature","geometry":{"type":"Point","coordinates":[-123.06510162353516,49.269630432128906,0]},"properties":{"DATE_PLANTED":"20190602","CULTIVAR_NAME":"FASTIGIATA","LATITUDE":49.269629000000002,"TREE_ID":120,"SPECIES_NAME":"SYLVATICA","COMMON_NAME":"PYRAMIDAL BEECH","DIAMETER":15,"GENUS_NAME":"FAGUS","LONGITUDE":-123.065101}},{"type":"Feature","geometry":{"type":"Point","coordinates":[-123.06493377685547,49.269626617431641,0]},"properties":{"DATE_PLANTED":"20190602","CULTIVAR_NAME":"FASTIGIATA","LATITUDE":49.269627999999997,"TREE_ID":123,"SPECIES_NAME":"SYLVATICA","COMMON_NAME":"PYRAMIDAL BEECH","DIAMETER":14,"GENUS_NAME":"FAGUS","LONGITUDE":-123.064936}},{"type":"Feature","geometry":{"type":"Point","coordinates":[-123.06484985351562,49.269496917724609,0]},"properties":{"DATE_PLANTED":"20190602","CULTIVAR_NAME":"FASTIGIATA","LATITUDE":49.269497999999999,"TREE_ID":124,"SPECIES_NAME":"SYLVATICA","COMMON_NAME":"PYRAMIDAL BEECH","DIAMETER":12,"GENUS_NAME":"FAGUS","LONGITUDE":-123.064852}},{"type":"Feature","geometry":{"type":"Point","coordinates":[-123.06478881835938,49.269626617431641,0]},"properties":{"DATE_PLANTED":"20190602","CULTIVAR_NAME":" ","LATITUDE":49.269627,"TREE_ID":125,"SPECIES_NAME":"RUBRUM","COMMON_NAME":"RED MAPLE","DIAMETER":3,"GENUS_NAME":"ACER","LONGITUDE":-123.06478799999999}},{"type":"Feature","geometry":{"type":"Point","coordinates":[-123.06465148925781,49.269496917724609,0]},"properties":{"DATE_PLANTED":"20190602","CULTIVAR_NAME":"FASTIGIATA","LATITUDE":49.269497000000001,"TREE_ID":126,"SPECIES_NAME":"SYLVATICA","COMMON_NAME":"PYRAMIDAL BEECH","DIAMETER":16,"GENUS_NAME":"FAGUS","LONGITUDE":-123.064651}},{"type":"Feature","geometry":{"type":"Point","coordinates":[-123.06461334228516,49.269626617431641,0]},"properties":{"DATE_PLANTED":"20190602","CULTIVAR_NAME":"FASTIGIATA","LATITUDE":49.269624999999998,"TREE_ID":127,"SPECIES_NAME":"SYLVATICA","COMMON_NAME":"PYRAMIDAL BEECH","DIAMETER":9,"GENUS_NAME":"FAGUS","LONGITUDE":-123.064612}},{"type":"Feature","geometry":{"type":"Point","coordinates":[-123.064453125,49.269622802734375,0]},"properties":{"DATE_PLANTED":"20190602","CULTIVAR_NAME":"FASTIGIATA","LATITUDE":49.269624,"TREE_ID":128,"SPECIES_NAME":"SYLVATICA","COMMON_NAME":"PYRAMIDAL BEECH","DIAMETER":12,"GENUS_NAME":"FAGUS","LONGITUDE":-123.064452}},{"type":"Feature","geometry":{"type":"Point","coordinates":[-123.06443786621094,49.269493103027344,0]},"properties":{"DATE_PLANTED":"20190602","CULTIVAR_NAME":"FASTIGIATA","LATITUDE":49.269494999999999,"TREE_ID":129,"SPECIES_NAME":"SYLVATICA","COMMON_NAME":"PYRAMIDAL BEECH","DIAMETER":16,"GENUS_NAME":"FAGUS","LONGITUDE":-123.06443899999999}},{"type":"Feature","geometry":{"type":"Point","coordinates":[-123.06430816650391,49.269622802734375,0]},"properties":{"DATE_PLANTED":"20190602","CULTIVAR_NAME":"FASTIGIATA","LATITUDE":49.269624,"TREE_ID":130,"SPECIES_NAME":"SYLVATICA","COMMON_NAME":"PYRAMIDAL BEECH","DIAMETER":18,"GENUS_NAME":"FAGUS","LONGITUDE":-123.06430899999999}},{"type":"Feature","geometry":{"type":"Point","coordinates":[-123.06427001953125,49.269493103027344,0]},"properties":{"DATE_PLANTED":"20190602","CULTIVAR_NAME":"FASTIGIATA","LATITUDE":49.269494000000002,"TREE_ID":131,"SPECIES_NAME":"SYLVATICA","COMMON_NAME":"PYRAMIDAL BEECH","DIAMETER":15,"GENUS_NAME":"FAGUS","LONGITUDE":-123.064268}},{"type":"Feature","geometry":{"type":"Point","coordinates":[-123.06416320800781,49.269622802734375,0]},"properties":{"DATE_PLANTED":"20190602","CULTIVAR_NAME":"FASTIGIATA","LATITUDE":49.269621999999998,"TREE_ID":132,"SPECIES_NAME":"SYLVATICA","COMMON_NAME":"PYRAMIDAL BEECH","DIAMETER":15,"GENUS_NAME":"FAGUS","LONGITUDE":-123.06416}},{"type":"Feature","geometry":{"type":"Point","coordinates":[-123.06402587890625,49.269622802734375,0]},"properties":{"DATE_PLANTED":"20190602","CULTIVAR_NAME":"FASTIGIATA","LATITUDE":49.269621000000001,"TREE_ID":133,"SPECIES_NAME":"SYLVATICA","COMMON_NAME":"PYRAMIDAL BEECH","DIAMETER":18,"GENUS_NAME":"FAGUS","LONGITUDE":-123.06402300000001}},{"type":"Feature","geometry":{"type":"Point","coordinates":[-123.06388854980469,49.269710540771484,0]},"properties":{"DATE_PLANTED":"20190602","CULTIVAR_NAME":"KWANZAN","LATITUDE":49.269711000000001,"TREE_ID":134,"SPECIES_NAME":"SERRULATA","COMMON_NAME":"KWANZAN FLOWERING CHERRY","DIAMETER":17.25,"GENUS_NAME":"PRUNUS","LONGITUDE":-123.06389}},{"type":"Feature","geometry":{"type":"Point","coordinates":[-123.06388854980469,49.269817352294922,0]},"properties":{"DATE_PLANTED":"20190602","CULTIVAR_NAME":"KWANZAN","LATITUDE":49.269817000000003,"TREE_ID":135,"SPECIES_NAME":"SERRULATA","COMMON_NAME":"KWANZAN FLOWERING CHERRY","DIAMETER":16.5,"GENUS_NAME":"PRUNUS","LONGITUDE":-123.063886}},{"type":"Feature","geometry":{"type":"Point","coordinates":[-123.06388092041016,49.269931793212891,0]},"properties":{"DATE_PLANTED":"20190602","CULTIVAR_NAME":"KWANZAN","LATITUDE":49.269933000000002,"TREE_ID":136,"SPECIES_NAME":"SERRULATA","COMMON_NAME":"KWANZAN FLOWERING CHERRY","DIAMETER":15.75,"GENUS_NAME":"PRUNUS","LONGITUDE":-123.063879}},{"type":"Feature","geometry":{"type":"Point","coordinates":[-123.06141662597656,49.265064239501953,0]},"properties":{"DATE_PLANTED":"20190602","CULTIVAR_NAME":" ","LATITUDE":49.265064000000002,"TREE_ID":1072,"SPECIES_NAME":"PLICATA","COMMON_NAME":"WESTERN RED CEDAR","DIAMETER":4,"GENUS_NAME":"THUJA","LONGITUDE":-123.061419}},{"type":"Feature","geometry":{"type":"Point","coordinates":[-123.07382202148438,49.265098571777344,0]},"properties":{"DATE_PLANTED":"20190602","CULTIVAR_NAME":" ","LATITUDE":49.265096999999997,"TREE_ID":1074,"SPECIES_NAME":"EXCELSIOR","COMMON_NAME":"EUROPEAN ASH","DIAMETER":5,"GENUS_NAME":"FRAXINUS","LONGITUDE":-123.07382}},{"type":"Feature","geometry":{"type":"Point","coordinates":[-123.06263732910156,49.26678466796875,0]},"properties":{"DATE_PLANTED":"20190602","CULTIVAR_NAME":" ","LATITUDE":49.266784999999999,"TREE_ID":3068,"SPECIES_NAME":"EUCHLORA   X","COMMON_NAME":"CRIMEAN LINDEN","DIAMETER":12.5,"GENUS_NAME":"TILIA","LONGITUDE":-123.062636}},{"type":"Feature","geometry":{"type":"Point","coordinates":[-123.06268310546875,49.266883850097656,0]},"properties":{"DATE_PLANTED":"20190602","CULTIVAR_NAME":" ","LATITUDE":49.266883,"TREE_ID":3069,"SPECIES_NAME":"EUCHLORA   X","COMMON_NAME":"CRIMEAN LINDEN","DIAMETER":15.75,"GENUS_NAME":"TILIA","LONGITUDE":-123.062681}},{"type":"Feature","geometry":{"type":"Point","coordinates":[-123.06244659423828,49.26678466796875,0]},"properties":{"DATE_PLANTED":"20190602","CULTIVAR_NAME":" ","LATITUDE":49.266782999999997,"TREE_ID":3070,"SPECIES_NAME":"EUCHLORA   X","COMMON_NAME":"CRIMEAN LINDEN","DIAMETER":11,"GENUS_NAME":"TILIA","LONGITUDE":-123.062449}},{"type":"Feature","geometry":{"type":"Point","coordinates":[-123.06246948242188,49.266880035400391,0]},"properties":{"DATE_PLANTED":"19900202","CULTIVAR_NAME":" ","LATITUDE":49.266880999999998,"TREE_ID":3071,"SPECIES_NAME":"EUCHLORA   X","COMMON_NAME":"CRIMEAN LINDEN","DIAMETER":14,"GENUS_NAME":"TILIA","LONGITUDE":-123.062473}},{"type":"Feature","geometry":{"type":"Point","coordinates":[-123.06229400634766,49.266880035400391,0]},"properties":{"DATE_PLANTED":"20190602","CULTIVAR_NAME":" ","LATITUDE":49.266879000000003,"TREE_ID":3072,"SPECIES_NAME":"EUCHLORA   X","COMMON_NAME":"CRIMEAN LINDEN","DIAMETER":15,"GENUS_NAME":"TILIA","LONGITUDE":-123.06229399999999}},{"type":"Feature","geometry":{"type":"Point","coordinates":[-123.06224060058594,49.266780853271484,0]},"properties":{"DATE_PLANTED":"20190602","CULTIVAR_NAME":" ","LATITUDE":49.266779999999997,"TREE_ID":3073,"SPECIES_NAME":"ROBUR","COMMON_NAME":"ENGLISH OAK","DIAMETER":25.5,"GENUS_NAME":"QUERCUS","LONGITUDE":-123.06223799999999}},{"type":"Feature","geometry":{"type":"Point","coordinates":[-123.06240081787109,49.266780853271484,0]},"properties":{"DATE_PLANTED":"20190602","CULTIVAR_NAME":" ","LATITUDE":49.266781999999999,"TREE_ID":3074,"SPECIES_NAME":"ROBUR","COMMON_NAME":"ENGLISH OAK","DIAMETER":18,"GENUS_NAME":"QUERCUS","LONGITUDE":-123.062398}},{"type":"Feature","geometry":{"type":"Point","coordinates":[-123.06211090087891,49.266876220703125,0]},"properties":{"DATE_PLANTED":"20190602","CULTIVAR_NAME":" ","LATITUDE":49.266877999999998,"TREE_ID":3075,"SPECIES_NAME":"EUCHLORA   X","COMMON_NAME":"CRIMEAN LINDEN","DIAMETER":14,"GENUS_NAME":"TILIA","LONGITUDE":-123.06211}},{"type":"Feature","geometry":{"type":"Point","coordinates":[-123.06175231933594,49.266696929931641,0]},"properties":{"DATE_PLANTED":"20190602","CULTIVAR_NAME":" ","LATITUDE":49.266697999999998,"TREE_ID":3079,"SPECIES_NAME":"CORDATA","COMMON_NAME":"LITTLE-LEAF LINDEN","DIAMETER":13,"GENUS_NAME":"TILIA","LONGITUDE":-123.06174900000001}},{"type":"Feature","geometry":{"type":"Point","coordinates":[-123.06157684326172,49.266693115234375,0]},"properties":{"DATE_PLANTED":"20190602","CULTIVAR_NAME":" ","LATITUDE":49.266694999999999,"TREE_ID":3083,"SPECIES_NAME":"CORDATA","COMMON_NAME":"LITTLE-LEAF LINDEN","DIAMETER":13,"GENUS_NAME":"TILIA","LONGITUDE":-123.061576}},{"type":"Feature","geometry":{"type":"Point","coordinates":[-123.06141662597656,49.266696929931641,0]},"properties":{"DATE_PLANTED":"20190602","CULTIVAR_NAME":" ","LATITUDE":49.266697999999998,"TREE_ID":3084,"SPECIES_NAME":"CORDATA","COMMON_NAME":"LITTLE-LEAF LINDEN","DIAMETER":16,"GENUS_NAME":"TILIA","LONGITUDE":-123.061413}},{"type":"Feature","geometry":{"type":"Point","coordinates":[-123.06125640869141,49.266693115234375,0]},"properties":{"DATE_PLANTED":"20190602","CULTIVAR_NAME":" ","LATITUDE":49.266692999999997,"TREE_ID":3085,"SPECIES_NAME":"CORDATA","COMMON_NAME":"LITTLE-LEAF LINDEN","DIAMETER":13,"GENUS_NAME":"TILIA","LONGITUDE":-123.06125900000001}},{"type":"Feature","geometry":{"type":"Point","coordinates":[-123.06117248535156,49.266792297363281,0]},"properties":{"DATE_PLANTED":"20190602","CULTIVAR_NAME":" ","LATITUDE":49.266792000000002,"TREE_ID":3087,"SPECIES_NAME":"CORDATA","COMMON_NAME":"LITTLE-LEAF LINDEN","DIAMETER":14,"GENUS_NAME":"TILIA","LONGITUDE":-123.06117}},{"type":"Feature","geometry":{"type":"Point","coordinates":[-123.06076812744141,49.266689300537109,0]},"properties":{"DATE_PLANTED":"20190602","CULTIVAR_NAME":" ","LATITUDE":49.266688000000002,"TREE_ID":3089,"SPECIES_NAME":"MENZIESII","COMMON_NAME":"DOUGLAS FIR","DIAMETER":40,"GENUS_NAME":"PSEUDOTSUGA","LONGITUDE":-123.06077000000001}},{"type":"Feature","geometry":{"type":"Point","coordinates":[-123.06101226806641,49.266792297363281,0]},"properties":{"DATE_PLANTED":"20190602","CULTIVAR_NAME":" ","LATITUDE":49.266792000000002,"TREE_ID":3090,"SPECIES_NAME":"CORDATA","COMMON_NAME":"LITTLE-LEAF LINDEN","DIAMETER":15,"GENUS_NAME":"TILIA","LONGITUDE":-123.06101}},{"type":"Feature","geometry":{"type":"Point","coordinates":[-123.06059265136719,49.266689300537109,0]},"properties":{"DATE_PLANTED":"20190602","CULTIVAR_NAME":" ","LATITUDE":49.266689,"TREE_ID":3091,"SPECIES_NAME":"CORDATA","COMMON_NAME":"LITTLE-LEAF LINDEN","DIAMETER":16,"GENUS_NAME":"TILIA","LONGITUDE":-123.060591}},{"type":"Feature","geometry":{"type":"Point","coordinates":[-123.06083679199219,49.266792297363281,0]},"properties":{"DATE_PLANTED":"20190602","CULTIVAR_NAME":" ","LATITUDE":49.266790999999998,"TREE_ID":3092,"SPECIES_NAME":"AMERICANA","COMMON_NAME":"BASSWOOD","DIAMETER":16.5,"GENUS_NAME":"TILIA","LONGITUDE":-123.060834}},{"type":"Feature","geometry":{"type":"Point","coordinates":[-123.0604248046875,49.266689300537109,0]},"properties":{"DATE_PLANTED":"20190602","CULTIVAR_NAME":" ","LATITUDE":49.266689999999997,"TREE_ID":3094,"SPECIES_NAME":"CORDATA","COMMON_NAME":"LITTLE-LEAF LINDEN","DIAMETER":15,"GENUS_NAME":"TILIA","LONGITUDE":-123.06042100000001}},{"type":"Feature","geometry":{"type":"Point","coordinates":[-123.06068420410156,49.266788482666016,0]},"properties":{"DATE_PLANTED":"20190602","CULTIVAR_NAME":" ","LATITUDE":49.266789000000003,"TREE_ID":3095,"SPECIES_NAME":"AMERICANA","COMMON_NAME":"BASSWOOD","DIAMETER":11,"GENUS_NAME":"TILIA","LONGITUDE":-123.060687}},{"type":"Feature","geometry":{"type":"Point","coordinates":[-123.06008148193359,49.266857147216797,0]},"properties":{"DATE_PLANTED":"20190602","CULTIVAR_NAME":"UKON","LATITUDE":49.266858999999997,"TREE_ID":3099,"SPECIES_NAME":"SERRULATA","COMMON_NAME":"UKON JAPANESE CHERRY","DIAMETER":26,"GENUS_NAME":"PRUNUS","LONGITUDE":-123.060081}},{"type":"Feature","geometry":{"type":"Point","coordinates":[-123.059814453125,49.266681671142578,0]},"properties":{"DATE_PLANTED":"20190602","CULTIVAR_NAME":"ATROPURPUREUM","LATITUDE":49.266682000000003,"TREE_ID":3105,"SPECIES_NAME":"CERASIFERA","COMMON_NAME":"PISSARD PLUM","DIAMETER":17,"GENUS_NAME":"PRUNUS","LONGITUDE":-123.059811}},{"type":"Feature","geometry":{"type":"Point","coordinates":[-123.05966186523438,49.266780853271484,0]},"properties":{"DATE_PLANTED":"20190602","CULTIVAR_NAME":"ATROPURPUREUM","LATITUDE":49.266779,"TREE_ID":3108,"SPECIES_NAME":"CERASIFERA","COMMON_NAME":"PISSARD PLUM","DIAMETER":20,"GENUS_NAME":"PRUNUS","LONGITUDE":-123.059662}},{"type":"Feature","geometry":{"type":"Point","coordinates":[-123.05961608886719,49.266681671142578,0]},"properties":{"DATE_PLANTED":"20190602","CULTIVAR_NAME":"ATROPURPUREUM","LATITUDE":49.266680999999998,"TREE_ID":3110,"SPECIES_NAME":"CERASIFERA","COMMON_NAME":"PISSARD PLUM","DIAMETER":23,"GENUS_NAME":"PRUNUS","LONGITUDE":-123.059614}},{"type":"Feature","geometry":{"type":"Point","coordinates":[-123.059326171875,49.266773223876953,0]},"properties":{"DATE_PLANTED":"20190602","CULTIVAR_NAME":"ATROPURPUREUM","LATITUDE":49.266773999999998,"TREE_ID":3112,"SPECIES_NAME":"CERASIFERA","COMMON_NAME":"PISSARD PLUM","DIAMETER":6,"GENUS_NAME":"PRUNUS","LONGITUDE":-123.05932900000001}},{"type":"Feature","geometry":{"type":"Point","coordinates":[-123.05915832519531,49.266777038574219,0]},"properties":{"DATE_PLANTED":"20190602","CULTIVAR_NAME":"ATROPURPUREUM","LATITUDE":49.266776,"TREE_ID":3113,"SPECIES_NAME":"CERASIFERA","COMMON_NAME":"PISSARD PLUM","DIAMETER":20,"GENUS_NAME":"PRUNUS","LONGITUDE":-123.059157}},{"type":"Feature","geometry":{"type":"Point","coordinates":[-123.05922698974609,49.266677856445312,0]},"properties":{"DATE_PLANTED":"20190602","CULTIVAR_NAME":"ATROPURPUREUM","LATITUDE":49.266677999999999,"TREE_ID":3114,"SPECIES_NAME":"CERASIFERA","COMMON_NAME":"PISSARD PLUM","DIAMETER":20,"GENUS_NAME":"PRUNUS","LONGITUDE":-123.059224}},{"type":"Feature","geometry":{"type":"Point","coordinates":[-123.05895233154297,49.266777038574219,0]},"properties":{"DATE_PLANTED":"20190602","CULTIVAR_NAME":"ATROPURPUREUM","LATITUDE":49.266776,"TREE_ID":3115,"SPECIES_NAME":"CERASIFERA","COMMON_NAME":"PISSARD PLUM","DIAMETER":20,"GENUS_NAME":"PRUNUS","LONGITUDE":-123.058955}},{"type":"Feature","geometry":{"type":"Point","coordinates":[-123.05906677246094,49.266677856445312,0]},"properties":{"DATE_PLANTED":"20190602","CULTIVAR_NAME":"ATROPURPUREUM","LATITUDE":49.266675999999997,"TREE_ID":3116,"SPECIES_NAME":"CERASIFERA","COMMON_NAME":"PISSARD PLUM","DIAMETER":19,"GENUS_NAME":"PRUNUS","LONGITUDE":-123.05906899999999}},{"type":"Feature","geometry":{"type":"Point","coordinates":[-123.05885314941406,49.266674041748047,0]},"properties":{"DATE_PLANTED":"20190602","CULTIVAR_NAME":"ATROPURPUREUM","LATITUDE":49.266672999999997,"TREE_ID":3117,"SPECIES_NAME":"CERASIFERA","COMMON_NAME":"PISSARD PLUM","DIAMETER":17,"GENUS_NAME":"PRUNUS","LONGITUDE":-123.05885600000001}},{"type":"Feature","geometry":{"type":"Point","coordinates":[-123.05876922607422,49.266773223876953,0]},"properties":{"DATE_PLANTED":"20190602","CULTIVAR_NAME":"ATROPURPUREUM","LATITUDE":49.266773000000001,"TREE_ID":3119,"SPECIES_NAME":"CERASIFERA","COMMON_NAME":"PISSARD PLUM","DIAMETER":18,"GENUS_NAME":"PRUNUS","LONGITUDE":-123.05877099999999}},{"type":"Feature","geometry":{"type":"Point","coordinates":[-123.05849456787109,49.266670227050781,0]},"properties":{"DATE_PLANTED":"20190602","CULTIVAR_NAME":"ATROPURPUREUM","LATITUDE":49.266672,"TREE_ID":3120,"SPECIES_NAME":"CERASIFERA","COMMON_NAME":"PISSARD PLUM","DIAMETER":16,"GENUS_NAME":"PRUNUS","LONGITUDE":-123.058492}},{"type":"Feature","geometry":{"type":"Point","coordinates":[-123.05783843994141,49.266746520996094,0]},"properties":{"DATE_PLANTED":"20190602","CULTIVAR_NAME":" ","LATITUDE":49.266748,"TREE_ID":3121,"SPECIES_NAME":"EUCHLORA   X","COMMON_NAME":"CRIMEAN LINDEN","DIAMETER":17,"GENUS_NAME":"TILIA","LONGITUDE":-123.05784199999999}},{"type":"Feature","geometry":{"type":"Point","coordinates":[-123.05752563476562,49.266841888427734,0]},"properties":{"DATE_PLANTED":"20190602","CULTIVAR_NAME":" ","LATITUDE":49.266841999999997,"TREE_ID":3125,"SPECIES_NAME":"EUCHLORA   X","COMMON_NAME":"CRIMEAN LINDEN","DIAMETER":15,"GENUS_NAME":"TILIA","LONGITUDE":-123.057524}},{"type":"Feature","geometry":{"type":"Point","coordinates":[-123.05764770507812,49.266746520996094,0]},"properties":{"DATE_PLANTED":"20190602","CULTIVAR_NAME":" ","LATITUDE":49.266745999999998,"TREE_ID":3126,"SPECIES_NAME":"EUCHLORA   X","COMMON_NAME":"CRIMEAN LINDEN","DIAMETER":20,"GENUS_NAME":"TILIA","LONGITUDE":-123.05765100000001}},{"type":"Feature","geometry":{"type":"Point","coordinates":[-123.06327056884766,49.266788482666016,0]},"properties":{"DATE_PLANTED":"20190602","CULTIVAR_NAME":" ","LATITUDE":49.266789000000003,"TREE_ID":3061,"SPECIES_NAME":"EUCHLORA   X","COMMON_NAME":"CRIMEAN LINDEN","DIAMETER":14,"GENUS_NAME":"TILIA","LONGITUDE":-123.06327}},{"type":"Feature","geometry":{"type":"Point","coordinates":[-123.06319427490234,49.266887664794922,0]},"properties":{"DATE_PLANTED":"20190602","CULTIVAR_NAME":" ","LATITUDE":49.266886999999997,"TREE_ID":3062,"SPECIES_NAME":"EUCHLORA   X","COMMON_NAME":"CRIMEAN LINDEN","DIAMETER":13.5,"GENUS_NAME":"TILIA","LONGITUDE":-123.063198}},{"type":"Feature","geometry":{"type":"Point","coordinates":[-123.06311798095703,49.266788482666016,0]},"properties":{"DATE_PLANTED":"20190602","CULTIVAR_NAME":" ","LATITUDE":49.266787999999998,"TREE_ID":3063,"SPECIES_NAME":"EUCHLORA   X","COMMON_NAME":"CRIMEAN LINDEN","DIAMETER":13,"GENUS_NAME":"TILIA","LONGITUDE":-123.063121}},{"type":"Feature","geometry":{"type":"Point","coordinates":[-123.06304931640625,49.266883850097656,0]},"properties":{"DATE_PLANTED":"20190602","CULTIVAR_NAME":" ","LATITUDE":49.266885000000002,"TREE_ID":3064,"SPECIES_NAME":"EUCHLORA   X","COMMON_NAME":"CRIMEAN LINDEN","DIAMETER":14,"GENUS_NAME":"TILIA","LONGITUDE":-123.06304900000001}},{"type":"Feature","geometry":{"type":"Point","coordinates":[-123.06296539306641,49.26678466796875,0]},"properties":{"DATE_PLANTED":"20190602","CULTIVAR_NAME":" ","LATITUDE":49.266786000000003,"TREE_ID":3065,"SPECIES_NAME":"EUCHLORA   X","COMMON_NAME":"CRIMEAN LINDEN","DIAMETER":13,"GENUS_NAME":"TILIA","LONGITUDE":-123.06296500000001}},{"type":"Feature","geometry":{"type":"Point","coordinates":[-123.06285858154297,49.266883850097656,0]},"properties":{"DATE_PLANTED":"20190602","CULTIVAR_NAME":" ","LATITUDE":49.266885000000002,"TREE_ID":3067,"SPECIES_NAME":"EUCHLORA   X","COMMON_NAME":"CRIMEAN LINDEN","DIAMETER":12,"GENUS_NAME":"TILIA","LONGITUDE":-123.062861}},{"type":"Feature","geometry":{"type":"Point","coordinates":[-123.05746459960938,49.266742706298828,0]},"properties":{"DATE_PLANTED":"20190602","CULTIVAR_NAME":" ","LATITUDE":49.266744000000003,"TREE_ID":3127,"SPECIES_NAME":"EUCHLORA   X","COMMON_NAME":"CRIMEAN LINDEN","DIAMETER":16,"GENUS_NAME":"TILIA","LONGITUDE":-123.057463}},{"type":"Feature","geometry":{"type":"Point","coordinates":[-123.05689239501953,49.266738891601562,0]},"properties":{"DATE_PLANTED":"20190602","CULTIVAR_NAME":" ","LATITUDE":49.266739999999999,"TREE_ID":3132,"SPECIES_NAME":"EUCHLORA   X","COMMON_NAME":"CRIMEAN LINDEN","DIAMETER":13,"GENUS_NAME":"TILIA","LONGITUDE":-123.056889}},{"type":"Feature","geometry":{"type":"Point","coordinates":[-123.05673980712891,49.266532897949219,0]},"properties":{"DATE_PLANTED":"19901107","CULTIVAR_NAME":"MORGAN","LATITUDE":49.266533000000003,"TREE_ID":3133,"SPECIES_NAME":"FREEMANI   X","COMMON_NAME":"MORGAN RED MAPLE","DIAMETER":5,"GENUS_NAME":"ACER","LONGITUDE":-123.05674}},{"type":"Feature","geometry":{"type":"Point","coordinates":[-123.05729675292969,49.266841888427734,0]},"properties":{"DATE_PLANTED":"20190602","CULTIVAR_NAME":" ","LATITUDE":49.266840999999999,"TREE_ID":3128,"SPECIES_NAME":"EUCHLORA   X","COMMON_NAME":"CRIMEAN LINDEN","DIAMETER":14,"GENUS_NAME":"TILIA","LONGITUDE":-123.05729599999999}},{"type":"Feature","geometry":{"type":"Point","coordinates":[-123.05727386474609,49.266742706298828,0]},"properties":{"DATE_PLANTED":"20190602","CULTIVAR_NAME":" ","LATITUDE":49.266742000000001,"TREE_ID":3129,"SPECIES_NAME":"EUCHLORA   X","COMMON_NAME":"CRIMEAN LINDEN","DIAMETER":18,"GENUS_NAME":"TILIA","LONGITUDE":-123.057273}},{"type":"Feature","geometry":{"type":"Point","coordinates":[-123.06568145751953,49.283157348632812,0]},"properties":{"DATE_PLANTED":"20190602","CULTIVAR_NAME":" ","LATITUDE":49.283158,"TREE_ID":6628,"SPECIES_NAME":"FLORIBUNDA","COMMON_NAME":"JAPANESE FLOWERING CRABAPPLE","DIAMETER":12,"GENUS_NAME":"MALUS","LONGITUDE":-123.065682}},{"type":"Feature","geometry":{"type":"Point","coordinates":[-123.071533203125,49.274387359619141,0]},"properties":{"DATE_PLANTED":"20190602","CULTIVAR_NAME":" ","LATITUDE":49.274388999999999,"TREE_ID":4525,"SPECIES_NAME":"PLATANOIDES","COMMON_NAME":"NORWAY MAPLE","DIAMETER":14,"GENUS_NAME":"ACER","LONGITUDE":-123.07153099999999}},{"type":"Feature","geometry":{"type":"Point","coordinates":[-123.071533203125,49.274318695068359,0]},"properties":{"DATE_PLANTED":"20190602","CULTIVAR_NAME":" ","LATITUDE":49.274318999999998,"TREE_ID":4526,"SPECIES_NAME":"PLATANOIDES","COMMON_NAME":"NORWAY MAPLE","DIAMETER":10.5,"GENUS_NAME":"ACER","LONGITUDE":-123.071535}},{"type":"Feature","geometry":{"type":"Point","coordinates":[-123.071533203125,49.274242401123047,0]},"properties":{"DATE_PLANTED":"20190602","CULTIVAR_NAME":" ","LATITUDE":49.274244000000003,"TREE_ID":3728,"SPECIES_NAME":"PLATANOIDES","COMMON_NAME":"NORWAY MAPLE","DIAMETER":6,"GENUS_NAME":"ACER","LONGITUDE":-123.071534}},{"type":"Feature","geometry":{"type":"Point","coordinates":[-123.06486511230469,49.264087677001953,0]},"properties":{"DATE_PLANTED":"20190602","CULTIVAR_NAME":" ","LATITUDE":49.264085999999999,"TREE_ID":5841,"SPECIES_NAME":"RUBRA","COMMON_NAME":"RED OAK","DIAMETER":29,"GENUS_NAME":"QUERCUS","LONGITUDE":-123.064868}},{"type":"Feature","geometry":{"type":"Point","coordinates":[-123.06470489501953,49.264183044433594,0]},"properties":{"DATE_PLANTED":"20190602","CULTIVAR_NAME":" ","LATITUDE":49.264183000000003,"TREE_ID":5842,"SPECIES_NAME":"RUBRA","COMMON_NAME":"RED OAK","DIAMETER":21,"GENUS_NAME":"QUERCUS","LONGITUDE":-123.064705}},{"type":"Feature","geometry":{"type":"Point","coordinates":[-123.06472015380859,49.264087677001953,0]},"properties":{"DATE_PLANTED":"20190602","CULTIVAR_NAME":" ","LATITUDE":49.264085999999999,"TREE_ID":5845,"SPECIES_NAME":"RUBRA","COMMON_NAME":"RED OAK","DIAMETER":29,"GENUS_NAME":"QUERCUS","LONGITUDE":-123.064718}},{"type":"Feature","geometry":{"type":"Point","coordinates":[-123.06440734863281,49.264179229736328,0]},"properties":{"DATE_PLANTED":"20190602","CULTIVAR_NAME":" ","LATITUDE":49.264181000000001,"TREE_ID":5846,"SPECIES_NAME":"RUBRA","COMMON_NAME":"RED OAK","DIAMETER":29,"GENUS_NAME":"QUERCUS","LONGITUDE":-123.064407}},{"type":"Feature","geometry":{"type":"Point","coordinates":[-123.06427764892578,49.264179229736328,0]},"properties":{"DATE_PLANTED":"20190602","CULTIVAR_NAME":" ","LATITUDE":49.264181000000001,"TREE_ID":5847,"SPECIES_NAME":"RUBRA","COMMON_NAME":"RED OAK","DIAMETER":29,"GENUS_NAME":"QUERCUS","LONGITUDE":-123.06428}},{"type":"Feature","geometry":{"type":"Point","coordinates":[-123.06439971923828,49.264083862304688,0]},"properties":{"DATE_PLANTED":"20190602","CULTIVAR_NAME":" ","LATITUDE":49.264082999999999,"TREE_ID":5848,"SPECIES_NAME":"RUBRA","COMMON_NAME":"RED OAK","DIAMETER":28,"GENUS_NAME":"QUERCUS","LONGITUDE":-123.06440000000001}},{"type":"Feature","geometry":{"type":"Point","coordinates":[-123.06427001953125,49.264080047607422,0]},"properties":{"DATE_PLANTED":"20190602","CULTIVAR_NAME":" ","LATITUDE":49.264080999999997,"TREE_ID":5849,"SPECIES_NAME":"RUBRA","COMMON_NAME":"RED OAK","DIAMETER":39,"GENUS_NAME":"QUERCUS","LONGITUDE":-123.064269}},{"type":"Feature","geometry":{"type":"Point","coordinates":[-123.065673828125,49.283531188964844,0]},"properties":{"DATE_PLANTED":"20190602","CULTIVAR_NAME":" ","LATITUDE":49.283529999999999,"TREE_ID":6693,"SPECIES_NAME":"FLORIBUNDA","COMMON_NAME":"JAPANESE FLOWERING CRABAPPLE","DIAMETER":8.25,"GENUS_NAME":"MALUS","LONGITUDE":-123.06567099999999}},{"type":"Feature","geometry":{"type":"Point","coordinates":[-123.065673828125,49.283428192138672,0]},"properties":{"DATE_PLANTED":"20190602","CULTIVAR_NAME":" ","LATITUDE":49.283428000000001,"TREE_ID":6694,"SPECIES_NAME":"FLORIBUNDA","COMMON_NAME":"JAPANESE FLOWERING CRABAPPLE","DIAMETER":11,"GENUS_NAME":"MALUS","LONGITUDE":-123.065674}},{"type":"Feature","geometry":{"type":"Point","coordinates":[-123.06376647949219,49.264179229736328,0]},"properties":{"DATE_PLANTED":"20190602","CULTIVAR_NAME":" ","LATITUDE":49.264178000000001,"TREE_ID":5850,"SPECIES_NAME":"RUBRA","COMMON_NAME":"RED OAK","DIAMETER":36,"GENUS_NAME":"QUERCUS","LONGITUDE":-123.063768}},{"type":"Feature","geometry":{"type":"Point","coordinates":[-123.06365966796875,49.264080047607422,0]},"properties":{"DATE_PLANTED":"20190602","CULTIVAR_NAME":" ","LATITUDE":49.264080999999997,"TREE_ID":5851,"SPECIES_NAME":"RUBRA","COMMON_NAME":"RED OAK","DIAMETER":47,"GENUS_NAME":"QUERCUS","LONGITUDE":-123.063661}},{"type":"Feature","geometry":{"type":"Point","coordinates":[-123.06363677978516,49.264175415039062,0]},"properties":{"DATE_PLANTED":"20190602","CULTIVAR_NAME":" ","LATITUDE":49.264175000000002,"TREE_ID":5852,"SPECIES_NAME":"RUBRA","COMMON_NAME":"RED OAK","DIAMETER":32,"GENUS_NAME":"QUERCUS","LONGITUDE":-123.06363399999999}},{"type":"Feature","geometry":{"type":"Point","coordinates":[-123.06350708007812,49.264076232910156,0]},"properties":{"DATE_PLANTED":"20190602","CULTIVAR_NAME":" ","LATITUDE":49.264074999999998,"TREE_ID":5853,"SPECIES_NAME":"RUBRA","COMMON_NAME":"RED OAK","DIAMETER":34.5,"GENUS_NAME":"QUERCUS","LONGITUDE":-123.063508}},{"type":"Feature","geometry":{"type":"Point","coordinates":[-123.07186126708984,49.265045166015625,0]},"properties":{"DATE_PLANTED":"20190602","CULTIVAR_NAME":" ","LATITUDE":49.265047000000003,"TREE_ID":4647,"SPECIES_NAME":"AMERICANA","COMMON_NAME":"AMERICAN ELM","DIAMETER":29,"GENUS_NAME":"ULMUS","LONGITUDE":-123.071862}},{"type":"Feature","geometry":{"type":"Point","coordinates":[-123.07199096679688,49.265045166015625,0]},"properties":{"DATE_PLANTED":"20190602","CULTIVAR_NAME":" ","LATITUDE":49.265047000000003,"TREE_ID":4648,"SPECIES_NAME":"PUMILA","COMMON_NAME":"SIBERIAN ELM","DIAMETER":33.5,"GENUS_NAME":"ULMUS","LONGITUDE":-123.071989}},{"type":"Feature","geometry":{"type":"Point","coordinates":[-123.07212066650391,49.265045166015625,0]},"properties":{"DATE_PLANTED":"20190602","CULTIVAR_NAME":" ","LATITUDE":49.265047000000003,"TREE_ID":4649,"SPECIES_NAME":"PUMILA","COMMON_NAME":"SIBERIAN ELM","DIAMETER":29.5,"GENUS_NAME":"ULMUS","LONGITUDE":-123.072119}},{"type":"Feature","geometry":{"type":"Point","coordinates":[-123.07224273681641,49.265045166015625,0]},"properties":{"DATE_PLANTED":"20190602","CULTIVAR_NAME":" ","LATITUDE":49.265047000000003,"TREE_ID":4650,"SPECIES_NAME":"PUMILA","COMMON_NAME":"SIBERIAN ELM","DIAMETER":25,"GENUS_NAME":"ULMUS","LONGITUDE":-123.072245}},{"type":"Feature","geometry":{"type":"Point","coordinates":[-123.0726318359375,49.265052795410156,0]},"properties":{"DATE_PLANTED":"20190602","CULTIVAR_NAME":" ","LATITUDE":49.265053000000002,"TREE_ID":4651,"SPECIES_NAME":"AMERICANA","COMMON_NAME":"AMERICAN ELM","DIAMETER":26,"GENUS_NAME":"ULMUS","LONGITUDE":-123.07263500000001}},{"type":"Feature","geometry":{"type":"Point","coordinates":[-123.0728759765625,49.265048980712891,0]},"properties":{"DATE_PLANTED":"20190602","CULTIVAR_NAME":" ","LATITUDE":49.265050000000002,"TREE_ID":4652,"SPECIES_NAME":"AMERICANA","COMMON_NAME":"AMERICAN ELM","DIAMETER":33,"GENUS_NAME":"ULMUS","LONGITUDE":-123.072875}},{"type":"Feature","geometry":{"type":"Point","coordinates":[-123.07320404052734,49.265029907226562,0]},"properties":{"DATE_PLANTED":"20190602","CULTIVAR_NAME":" ","LATITUDE":49.265028000000001,"TREE_ID":4653,"SPECIES_NAME":"AMERICANA","COMMON_NAME":"AMERICAN ELM","DIAMETER":28,"GENUS_NAME":"ULMUS","LONGITUDE":-123.073207}},{"type":"Feature","geometry":{"type":"Point","coordinates":[-123.0728759765625,49.265151977539062,0]},"properties":{"DATE_PLANTED":"20190602","CULTIVAR_NAME":" ","LATITUDE":49.265152999999998,"TREE_ID":4655,"SPECIES_NAME":"PUMILA","COMMON_NAME":"SIBERIAN ELM","DIAMETER":23,"GENUS_NAME":"ULMUS","LONGITUDE":-123.072878}},{"type":"Feature","geometry":{"type":"Point","coordinates":[-123.07249450683594,49.265148162841797,0]},"properties":{"DATE_PLANTED":"20190602","CULTIVAR_NAME":" ","LATITUDE":49.265146999999999,"TREE_ID":4657,"SPECIES_NAME":"PUMILA","COMMON_NAME":"SIBERIAN ELM","DIAMETER":28,"GENUS_NAME":"ULMUS","LONGITUDE":-123.07249400000001}},{"type":"Feature","geometry":{"type":"Point","coordinates":[-123.07234954833984,49.265144348144531,0]},"properties":{"DATE_PLANTED":"20190602","CULTIVAR_NAME":" ","LATITUDE":49.265143999999999,"TREE_ID":4658,"SPECIES_NAME":"PUMILA","COMMON_NAME":"SIBERIAN ELM","DIAMETER":23,"GENUS_NAME":"ULMUS","LONGITUDE":-123.07234800000001}},{"type":"Feature","geometry":{"type":"Point","coordinates":[-123.06795501708984,49.265110015869141,0]},"properties":{"DATE_PLANTED":"20190602","CULTIVAR_NAME":" ","LATITUDE":49.265110999999997,"TREE_ID":4659,"SPECIES_NAME":"PUMILA","COMMON_NAME":"SIBERIAN ELM","DIAMETER":26,"GENUS_NAME":"ULMUS","LONGITUDE":-123.067956}},{"type":"Feature","geometry":{"type":"Point","coordinates":[-123.07159423828125,49.265041351318359,0]},"properties":{"DATE_PLANTED":"20190602","CULTIVAR_NAME":" ","LATITUDE":49.265042000000001,"TREE_ID":4661,"SPECIES_NAME":"PUMILA","COMMON_NAME":"SIBERIAN ELM","DIAMETER":24,"GENUS_NAME":"ULMUS","LONGITUDE":-123.071594}},{"type":"Feature","geometry":{"type":"Point","coordinates":[-123.07111358642578,49.265037536621094,0]},"properties":{"DATE_PLANTED":"20190602","CULTIVAR_NAME":" ","LATITUDE":49.265036000000002,"TREE_ID":4662,"SPECIES_NAME":"PUMILA","COMMON_NAME":"SIBERIAN ELM","DIAMETER":15,"GENUS_NAME":"ULMUS","LONGITUDE":-123.071116}},{"type":"Feature","geometry":{"type":"Point","coordinates":[-123.07125091552734,49.265037536621094,0]},"properties":{"DATE_PLANTED":"20190602","CULTIVAR_NAME":" ","LATITUDE":49.265039000000002,"TREE_ID":4663,"SPECIES_NAME":"PUMILA","COMMON_NAME":"SIBERIAN ELM","DIAMETER":25,"GENUS_NAME":"ULMUS","LONGITUDE":-123.071251}},{"type":"Feature","geometry":{"type":"Point","coordinates":[-123.07111358642578,49.265140533447266,0]},"properties":{"DATE_PLANTED":"20190602","CULTIVAR_NAME":" ","LATITUDE":49.265141999999997,"TREE_ID":4667,"SPECIES_NAME":"PUMILA","COMMON_NAME":"SIBERIAN ELM","DIAMETER":26,"GENUS_NAME":"ULMUS","LONGITUDE":-123.071111}},{"type":"Feature","geometry":{"type":"Point","coordinates":[-123.07085418701172,49.265140533447266,0]},"properties":{"DATE_PLANTED":"20190602","CULTIVAR_NAME":" ","LATITUDE":49.265138999999998,"TREE_ID":4669,"SPECIES_NAME":"PUMILA","COMMON_NAME":"SIBERIAN ELM","DIAMETER":20,"GENUS_NAME":"ULMUS","LONGITUDE":-123.07085600000001}},{"type":"Feature","geometry":{"type":"Point","coordinates":[-123.07046508789062,49.265140533447266,0]},"properties":{"DATE_PLANTED":"20190602","CULTIVAR_NAME":" ","LATITUDE":49.265138999999998,"TREE_ID":4671,"SPECIES_NAME":"PLATANOIDES","COMMON_NAME":"NORWAY MAPLE","DIAMETER":20,"GENUS_NAME":"ACER","LONGITUDE":-123.070464}},{"type":"Feature","geometry":{"type":"Point","coordinates":[-123.07037353515625,49.265140533447266,0]},"properties":{"DATE_PLANTED":"20190602","CULTIVAR_NAME":" ","LATITUDE":49.265138999999998,"TREE_ID":4672,"SPECIES_NAME":"PLATANOIDES","COMMON_NAME":"NORWAY MAPLE","DIAMETER":19,"GENUS_NAME":"ACER","LONGITUDE":-123.07037}},{"type":"Feature","geometry":{"type":"Point","coordinates":[-123.06900787353516,49.265022277832031,0]},"properties":{"DATE_PLANTED":"20190602","CULTIVAR_NAME":" ","LATITUDE":49.265022000000002,"TREE_ID":4673,"SPECIES_NAME":"PUMILA","COMMON_NAME":"SIBERIAN ELM","DIAMETER":28.5,"GENUS_NAME":"ULMUS","LONGITUDE":-123.069011}},{"type":"Feature","geometry":{"type":"Point","coordinates":[-123.06873321533203,49.265018463134766,0]},"properties":{"DATE_PLANTED":"20190602","CULTIVAR_NAME":" ","LATITUDE":49.265017,"TREE_ID":4674,"SPECIES_NAME":"AMERICANA","COMMON_NAME":"AMERICAN ELM","DIAMETER":46.5,"GENUS_NAME":"ULMUS","LONGITUDE":-123.068731}},{"type":"Feature","geometry":{"type":"Point","coordinates":[-123.06863403320312,49.265018463134766,0]},"properties":{"DATE_PLANTED":"20190602","CULTIVAR_NAME":" ","LATITUDE":49.265017,"TREE_ID":4675,"SPECIES_NAME":"PUMILA","COMMON_NAME":"SIBERIAN ELM","DIAMETER":25.5,"GENUS_NAME":"ULMUS","LONGITUDE":-123.068636}},{"type":"Feature","geometry":{"type":"Point","coordinates":[-123.06838226318359,49.2650146484375,0]},