[{"type":"Feature","geometry":{"type":"Point","coordinates":[-123.14572906494141,49.249523162841797,0]},"properties":{"DATE_PLANTED":"20100104","CULTIVAR_NAME":" ","LATITUDE":49.249524999999998,"TREE_ID":592,"SPECIES_NAME":"GRANDIS","COMMON_NAME":"GRAND FIR","DIAMETER":3,"GENUS_NAME":"ABIES","LONGITUDE":-123.145732}},{"type":"Feature","geometry":{"type":"Point","coordinates":[-123.1495361328125,49.250030517578125,0]},"properties":{"DATE_PLANTED":"20190602","CULTIVAR_NAME":" ","LATITUDE":49.250031,"TREE_ID":716,"SPECIES_NAME":"JAPONICA","COMMON_NAME":"JAPANESE SNOWBELL","DIAMETER":3,"GENUS_NAME":"STYRAX","LONGITUDE":-123.149539}},{"type":"Feature","geometry":{"type":"Point","coordinates":[-123.13338470458984,49.236869812011719,0]},"properties":{"DATE_PLANTED":"20190602","CULTIVAR_NAME":" ","LATITUDE":49.236868000000001,"TREE_ID":1596,"SPECIES_NAME":"TRIACANTHOS","COMMON_NAME":"HONEYLOCUST","DIAMETER":6,"GENUS_NAME":"GLEDITSIA","LONGITUDE":-123.133381}},{"type":"Feature","geometry":{"type":"Point","coordinates":[-123.12871551513672,49.249252319335938,0]},"properties":{"DATE_PLANTED":"20091221","CULTIVAR_NAME":" ","LATITUDE":49.249253000000003,"TREE_ID":2110,"SPECIES_NAME":"DEODARA","COMMON_NAME":"DEODAR CEDAR","DIAMETER":3,"GENUS_NAME":"CEDRUS","LONGITUDE":-123.128719}},{"type":"Feature","geometry":{"type":"Point","coordinates":[-123.14475250244141,49.235607147216797,0]},"properties":{"DATE_PLANTED":"20090216","CULTIVAR_NAME":"QUEEN ELIZABETH","LATITUDE":49.235607000000002,"TREE_ID":720,"SPECIES_NAME":"CAMPESTRE","COMMON_NAME":"QUEEN ELIZABETH MAPLE","DIAMETER":3,"GENUS_NAME":"ACER","LONGITUDE":-123.14475400000001}},{"type":"Feature","geometry":{"type":"Point","coordinates":[-123.14055633544922,49.251781463623047,0]},"properties":{"DATE_PLANTED":"20090204","CULTIVAR_NAME":"GLOBOSUM","LATITUDE":49.251779999999997,"TREE_ID":585,"SPECIES_NAME":"PLATANOIDES","COMMON_NAME":"GLOBEHEAD NORWAY MAPLE","DIAMETER":3,"GENUS_NAME":"ACER","LONGITUDE":-123.140553}},{"type":"Feature","geometry":{"type":"Point","coordinates":[-123.13009643554688,49.244007110595703,0]},"properties":{"DATE_PLANTED":"20190602","CULTIVAR_NAME":" ","LATITUDE":49.244008000000001,"TREE_ID":948,"SPECIES_NAME":"OXYACANTHA","COMMON_NAME":"ENGLISH HAWTHORN","DIAMETER":5,"GENUS_NAME":"CRATAEGUS","LONGITUDE":-123.130093}},{"type":"Feature","geometry":{"type":"Point","coordinates":[-123.14617156982422,49.246940612792969,0]},"properties":{"DATE_PLANTED":"20190602","CULTIVAR_NAME":"AKEBONO","LATITUDE":49.246941999999997,"TREE_ID":4374,"SPECIES_NAME":"X YEDOENSIS","COMMON_NAME":"AKEBONO FLOWERING CHERRY","DIAMETER":10.5,"GENUS_NAME":"PRUNUS","LONGITUDE":-123.146168}},{"type":"Feature","geometry":{"type":"Point","coordinates":[-123.13167572021484,49.235862731933594,0]},"properties":{"DATE_PLANTED":"20190602","CULTIVAR_NAME":" ","LATITUDE":49.235863999999999,"TREE_ID":4458,"SPECIES_NAME":"AQUIFOLIUM","COMMON_NAME":"ENGLISH HOLLY","DIAMETER":6,"GENUS_NAME":"ILEX","LONGITUDE":-123.13167900000001}},{"type":"Feature","geometry":{"type":"Point","coordinates":[-123.13894653320312,49.243850708007812,0]},"properties":{"DATE_PLANTED":"20190602","CULTIVAR_NAME":" ","LATITUDE":49.243850999999999,"TREE_ID":3448,"SPECIES_NAME":"PSEUDOACACIA","COMMON_NAME":"BLACK LOCUST","DIAMETER":8.75,"GENUS_NAME":"ROBINIA","LONGITUDE":-123.138944}},{"type":"Feature","geometry":{"type":"Point","coordinates":[-123.13883972167969,49.243896484375,0]},"properties":{"DATE_PLANTED":"20190602","CULTIVAR_NAME":" ","LATITUDE":49.243895999999999,"TREE_ID":3451,"SPECIES_NAME":"PSEUDOACACIA","COMMON_NAME":"BLACK LOCUST","DIAMETER":9.25,"GENUS_NAME":"ROBINIA","LONGITUDE":-123.138836}},{"type":"Feature","geometry":{"type":"Point","coordinates":[-123.13481140136719,49.244224548339844,0]},"properties":{"DATE_PLANTED":"20190602","CULTIVAR_NAME":" ","LATITUDE":49.244225,"TREE_ID":7224,"SPECIES_NAME":"SPECIES","COMMON_NAME":"CHERRY, PLUM OR PEACH SPECIES","DIAMETER":16,"GENUS_NAME":"PRUNUS","LONGITUDE":-123.13481299999999}},{"type":"Feature","geometry":{"type":"Point","coordinates":[-123.13803100585938,49.247875213623047,0]},"properties":{"DATE_PLANTED":"20190602","CULTIVAR_NAME":" ","LATITUDE":49.247875000000001,"TREE_ID":8593,"SPECIES_NAME":"AVIUM","COMMON_NAME":"MAZZARD CHERRY","DIAMETER":12,"GENUS_NAME":"PRUNUS","LONGITUDE":-123.13802800000001}},{"type":"Feature","geometry":{"type":"Point","coordinates":[-123.14116668701172,49.249454498291016,0]},"properties":{"DATE_PLANTED":"20100222","CULTIVAR_NAME":" ","LATITUDE":49.249456000000002,"TREE_ID":12505,"SPECIES_NAME":"DEODARA","COMMON_NAME":"DEODAR CEDAR","DIAMETER":3.5,"GENUS_NAME":"CEDRUS","LONGITUDE":-123.141167}},{"type":"Feature","geometry":{"type":"Point","coordinates":[-123.14867401123047,49.252090454101562,0]},"properties":{"DATE_PLANTED":"20190602","CULTIVAR_NAME":" ","LATITUDE":49.252090000000003,"TREE_ID":11971,"SPECIES_NAME":"ACERIFOLIA   X","COMMON_NAME":"LONDON PLANE TREE","DIAMETER":10,"GENUS_NAME":"PLATANUS","LONGITUDE":-123.148674}},{"type":"Feature","geometry":{"type":"Point","coordinates":[-123.13282012939453,49.249309539794922,0]},"properties":{"DATE_PLANTED":"20091216","CULTIVAR_NAME":"EDDIE'S WHITE WONDER","LATITUDE":49.249307999999999,"TREE_ID":14224,"SPECIES_NAME":"XX","COMMON_NAME":"EDDIES WHITE WONDER DOGWOOD ","DIAMETER":4,"GENUS_NAME":"CORNUS","LONGITUDE":-123.132818}},{"type":"Feature","geometry":{"type":"Point","coordinates":[-123.13272857666016,49.249309539794922,0]},"properties":{"DATE_PLANTED":"20091216","CULTIVAR_NAME":"EDDIE'S WHITE WONDER","LATITUDE":49.249310999999999,"TREE_ID":14226,"SPECIES_NAME":"XX","COMMON_NAME":"EDDIES WHITE WONDER DOGWOOD ","DIAMETER":4,"GENUS_NAME":"CORNUS","LONGITUDE":-123.132729}},{"type":"Feature","geometry":{"type":"Point","coordinates":[-123.15036010742188,49.256244659423828,0]},"properties":{"DATE_PLANTED":"20190602","CULTIVAR_NAME":" ","LATITUDE":49.256244000000002,"TREE_ID":18515,"SPECIES_NAME":"GLABRA","COMMON_NAME":"SCOTS ELM ","DIAMETER":22.5,"GENUS_NAME":"ULMUS","LONGITUDE":-123.15035899999999}},{"type":"Feature","geometry":{"type":"Point","coordinates":[-123.15055847167969,49.256248474121094,0]},"properties":{"DATE_PLANTED":"20051208","CULTIVAR_NAME":" ","LATITUDE":49.256250000000001,"TREE_ID":18516,"SPECIES_NAME":"JAPONICUM","COMMON_NAME":"KATSURA TREE","DIAMETER":4,"GENUS_NAME":"CERCIDIPHYLLUM","LONGITUDE":-123.15056}},{"type":"Feature","geometry":{"type":"Point","coordinates":[-123.15064239501953,49.256248474121094,0]},"properties":{"DATE_PLANTED":"20190602","CULTIVAR_NAME":"DALECARLICA","LATITUDE":49.256250000000001,"TREE_ID":18517,"SPECIES_NAME":"PENDULA","COMMON_NAME":"WEEPING CUTLEAF BIRCH","DIAMETER":14.5,"GENUS_NAME":"BETULA","LONGITUDE":-123.15064}},{"type":"Feature","geometry":{"type":"Point","coordinates":[-123.12805938720703,49.256973266601562,0]},"properties":{"DATE_PLANTED":"20190602","CULTIVAR_NAME":"KWANZAN","LATITUDE":49.256971999999998,"TREE_ID":17274,"SPECIES_NAME":"SERRULATA","COMMON_NAME":"KWANZAN FLOWERING CHERRY","DIAMETER":9.5,"GENUS_NAME":"PRUNUS","LONGITUDE":-123.128058}},{"type":"Feature","geometry":{"type":"Point","coordinates":[-123.12833404541016,49.256973266601562,0]},"properties":{"DATE_PLANTED":"20190602","CULTIVAR_NAME":"KWANZAN","LATITUDE":49.256974999999997,"TREE_ID":17276,"SPECIES_NAME":"SERRULATA","COMMON_NAME":"KWANZAN FLOWERING CHERRY","DIAMETER":7.25,"GENUS_NAME":"PRUNUS","LONGITUDE":-123.128333}},{"type":"Feature","geometry":{"type":"Point","coordinates":[-123.12849426269531,49.256977081298828,0]},"properties":{"DATE_PLANTED":"20190602","CULTIVAR_NAME":"KWANZAN","LATITUDE":49.256977999999997,"TREE_ID":17277,"SPECIES_NAME":"SERRULATA","COMMON_NAME":"KWANZAN FLOWERING CHERRY","DIAMETER":7,"GENUS_NAME":"PRUNUS","LONGITUDE":-123.128495}},{"type":"Feature","geometry":{"type":"Point","coordinates":[-123.12864685058594,49.256980895996094,0]},"properties":{"DATE_PLANTED":"20190602","CULTIVAR_NAME":"KWANZAN","LATITUDE":49.256981000000003,"TREE_ID":17278,"SPECIES_NAME":"SERRULATA","COMMON_NAME":"KWANZAN FLOWERING CHERRY","DIAMETER":6.75,"GENUS_NAME":"PRUNUS","LONGITUDE":-123.128649}},{"type":"Feature","geometry":{"type":"Point","coordinates":[-123.12881469726562,49.256984710693359,0]},"properties":{"DATE_PLANTED":"20190602","CULTIVAR_NAME":"KWANZAN","LATITUDE":49.256982999999998,"TREE_ID":17279,"SPECIES_NAME":"SERRULATA","COMMON_NAME":"KWANZAN FLOWERING CHERRY","DIAMETER":11.5,"GENUS_NAME":"PRUNUS","LONGITUDE":-123.128816}},{"type":"Feature","geometry":{"type":"Point","coordinates":[-123.12896728515625,49.256984710693359,0]},"properties":{"DATE_PLANTED":"20190602","CULTIVAR_NAME":"KWANZAN","LATITUDE":49.256985999999998,"TREE_ID":17280,"SPECIES_NAME":"SERRULATA","COMMON_NAME":"KWANZAN FLOWERING CHERRY","DIAMETER":11.25,"GENUS_NAME":"PRUNUS","LONGITUDE":-123.128964}},{"type":"Feature","geometry":{"type":"Point","coordinates":[-123.12911987304688,49.256988525390625,0]},"properties":{"DATE_PLANTED":"20190602","CULTIVAR_NAME":"KWANZAN","LATITUDE":49.256988999999997,"TREE_ID":17281,"SPECIES_NAME":"SERRULATA","COMMON_NAME":"KWANZAN FLOWERING CHERRY","DIAMETER":5.75,"GENUS_NAME":"PRUNUS","LONGITUDE":-123.12912300000001}},{"type":"Feature","geometry":{"type":"Point","coordinates":[-123.14643096923828,49.256282806396484,0]},"properties":{"DATE_PLANTED":"20190602","CULTIVAR_NAME":" ","LATITUDE":49.256283000000003,"TREE_ID":18473,"SPECIES_NAME":"KOBUS","COMMON_NAME":"KOBUS MAGNOLIA ","DIAMETER":13.5,"GENUS_NAME":"MAGNOLIA","LONGITUDE":-123.146433}},{"type":"Feature","geometry":{"type":"Point","coordinates":[-123.14622497558594,49.256282806396484,0]},"properties":{"DATE_PLANTED":"20190602","CULTIVAR_NAME":" ","LATITUDE":49.256281000000001,"TREE_ID":18474,"SPECIES_NAME":"KOBUS","COMMON_NAME":"KOBUS MAGNOLIA ","DIAMETER":22,"GENUS_NAME":"MAGNOLIA","LONGITUDE":-123.14622300000001}},{"type":"Feature","geometry":{"type":"Point","coordinates":[-123.14701843261719,49.256294250488281,0]},"properties":{"DATE_PLANTED":"20190602","CULTIVAR_NAME":" ","LATITUDE":49.256293999999997,"TREE_ID":18476,"SPECIES_NAME":"KOBUS","COMMON_NAME":"KOBUS MAGNOLIA ","DIAMETER":13.5,"GENUS_NAME":"MAGNOLIA","LONGITUDE":-123.147021}},{"type":"Feature","geometry":{"type":"Point","coordinates":[-123.14682006835938,49.256290435791016,0]},"properties":{"DATE_PLANTED":"20190602","CULTIVAR_NAME":" ","LATITUDE":49.256289000000002,"TREE_ID":18477,"SPECIES_NAME":"KOBUS","COMMON_NAME":"KOBUS MAGNOLIA ","DIAMETER":10.75,"GENUS_NAME":"MAGNOLIA","LONGITUDE":-123.14682000000001}},{"type":"Feature","geometry":{"type":"Point","coordinates":[-123.14737701416016,49.256298065185547,0]},"properties":{"DATE_PLANTED":"20190602","CULTIVAR_NAME":" ","LATITUDE":49.256297000000004,"TREE_ID":18480,"SPECIES_NAME":"KOBUS","COMMON_NAME":"KOBUS MAGNOLIA ","DIAMETER":9.5,"GENUS_NAME":"MAGNOLIA","LONGITUDE":-123.147379}},{"type":"Feature","geometry":{"type":"Point","coordinates":[-123.14730072021484,49.256198883056641,0]},"properties":{"DATE_PLANTED":"20190602","CULTIVAR_NAME":" ","LATITUDE":49.256197,"TREE_ID":18482,"SPECIES_NAME":"KOBUS","COMMON_NAME":"KOBUS MAGNOLIA ","DIAMETER":13,"GENUS_NAME":"MAGNOLIA","LONGITUDE":-123.14729800000001}},{"type":"Feature","geometry":{"type":"Point","coordinates":[-123.14749145507812,49.256202697753906,0]},"properties":{"DATE_PLANTED":"20190602","CULTIVAR_NAME":" ","LATITUDE":49.256202999999999,"TREE_ID":18483,"SPECIES_NAME":"KOBUS","COMMON_NAME":"KOBUS MAGNOLIA ","DIAMETER":12.75,"GENUS_NAME":"MAGNOLIA","LONGITUDE":-123.14748899999999}},{"type":"Feature","geometry":{"type":"Point","coordinates":[-123.14798736572266,49.256210327148438,0]},"properties":{"DATE_PLANTED":"20190602","CULTIVAR_NAME":" ","LATITUDE":49.256211,"TREE_ID":18488,"SPECIES_NAME":"KOUSA","COMMON_NAME":"JAPANESE DOGWOOD","DIAMETER":12,"GENUS_NAME":"CORNUS","LONGITUDE":-123.14798500000001}},{"type":"Feature","geometry":{"type":"Point","coordinates":[-123.14820098876953,49.256214141845703,0]},"properties":{"DATE_PLANTED":"20190602","CULTIVAR_NAME":" ","LATITUDE":49.256214,"TREE_ID":18489,"SPECIES_NAME":"KOBUS","COMMON_NAME":"KOBUS MAGNOLIA ","DIAMETER":12.5,"GENUS_NAME":"MAGNOLIA","LONGITUDE":-123.148201}},{"type":"Feature","geometry":{"type":"Point","coordinates":[-123.14787292480469,49.256309509277344,0]},"properties":{"DATE_PLANTED":"20190602","CULTIVAR_NAME":" ","LATITUDE":49.256307999999997,"TREE_ID":18495,"SPECIES_NAME":"AMERICANA","COMMON_NAME":"AMERICAN ELM","DIAMETER":31,"GENUS_NAME":"ULMUS","LONGITUDE":-123.147875}},{"type":"Feature","geometry":{"type":"Point","coordinates":[-123.14888000488281,49.2562255859375,0]},"properties":{"DATE_PLANTED":"20190602","CULTIVAR_NAME":" ","LATITUDE":49.256225000000001,"TREE_ID":18497,"SPECIES_NAME":"AMERICANA","COMMON_NAME":"AMERICAN ELM","DIAMETER":38,"GENUS_NAME":"ULMUS","LONGITUDE":-123.148881}},{"type":"Feature","geometry":{"type":"Point","coordinates":[-123.14849090576172,49.255855560302734,0]},"properties":{"DATE_PLANTED":"20190602","CULTIVAR_NAME":" ","LATITUDE":49.255856000000001,"TREE_ID":18498,"SPECIES_NAME":"HIPPOCASTANUM","COMMON_NAME":"COMMON HORSECHESTNUT","DIAMETER":36,"GENUS_NAME":"AESCULUS","LONGITUDE":-123.148492}},{"type":"Feature","geometry":{"type":"Point","coordinates":[-123.14975738525391,49.256240844726562,0]},"properties":{"DATE_PLANTED":"20190602","CULTIVAR_NAME":" ","LATITUDE":49.256239000000001,"TREE_ID":18508,"SPECIES_NAME":"PLATANOIDES","COMMON_NAME":"NORWAY MAPLE","DIAMETER":21,"GENUS_NAME":"ACER","LONGITUDE":-123.149755}},{"type":"Feature","geometry":{"type":"Point","coordinates":[-123.14981079101562,49.256336212158203,0]},"properties":{"DATE_PLANTED":"20190602","CULTIVAR_NAME":" ","LATITUDE":49.256335999999997,"TREE_ID":18513,"SPECIES_NAME":"AMERICANA","COMMON_NAME":"AMERICAN ELM","DIAMETER":23,"GENUS_NAME":"ULMUS","LONGITUDE":-123.149809}},{"type":"Feature","geometry":{"type":"Point","coordinates":[-123.15011596679688,49.256343841552734,0]},"properties":{"DATE_PLANTED":"20190602","CULTIVAR_NAME":" ","LATITUDE":49.256343999999999,"TREE_ID":18514,"SPECIES_NAME":"AMERICANA","COMMON_NAME":"AMERICAN ELM","DIAMETER":26,"GENUS_NAME":"ULMUS","LONGITUDE":-123.150116}},{"type":"Feature","geometry":{"type":"Point","coordinates":[-123.13961791992188,49.256984710693359,0]},"properties":{"DATE_PLANTED":"20190602","CULTIVAR_NAME":"ATROPURPUREUM","LATITUDE":49.256982999999998,"TREE_ID":17293,"SPECIES_NAME":"CERASIFERA","COMMON_NAME":"PISSARD PLUM","DIAMETER":17,"GENUS_NAME":"PRUNUS","LONGITUDE":-123.139619}},{"type":"Feature","geometry":{"type":"Point","coordinates":[-123.13975524902344,49.256984710693359,0]},"properties":{"DATE_PLANTED":"20190602","CULTIVAR_NAME":"ATROPURPUREUM","LATITUDE":49.256982999999998,"TREE_ID":17294,"SPECIES_NAME":"CERASIFERA","COMMON_NAME":"PISSARD PLUM","DIAMETER":14.75,"GENUS_NAME":"PRUNUS","LONGITUDE":-123.139753}},{"type":"Feature","geometry":{"type":"Point","coordinates":[-123.13988494873047,49.256984710693359,0]},"properties":{"DATE_PLANTED":"20190602","CULTIVAR_NAME":"ATROPURPUREUM","LATITUDE":49.256982999999998,"TREE_ID":17295,"SPECIES_NAME":"CERASIFERA","COMMON_NAME":"PISSARD PLUM","DIAMETER":15,"GENUS_NAME":"PRUNUS","LONGITUDE":-123.139882}},{"type":"Feature","geometry":{"type":"Point","coordinates":[-123.1400146484375,49.256984710693359,0]},"properties":{"DATE_PLANTED":"20190602","CULTIVAR_NAME":"ATROPURPUREUM","LATITUDE":49.256985999999998,"TREE_ID":17296,"SPECIES_NAME":"CERASIFERA","COMMON_NAME":"PISSARD PLUM","DIAMETER":14.25,"GENUS_NAME":"PRUNUS","LONGITUDE":-123.140017}},{"type":"Feature","geometry":{"type":"Point","coordinates":[-123.14015960693359,49.256984710693359,0]},"properties":{"DATE_PLANTED":"20190602","CULTIVAR_NAME":"ATROPURPUREUM","LATITUDE":49.256985999999998,"TREE_ID":17300,"SPECIES_NAME":"CERASIFERA","COMMON_NAME":"PISSARD PLUM","DIAMETER":17,"GENUS_NAME":"PRUNUS","LONGITUDE":-123.14016100000001}},{"type":"Feature","geometry":{"type":"Point","coordinates":[-123.14031219482422,49.256988525390625,0]},"properties":{"DATE_PLANTED":"20190602","CULTIVAR_NAME":"ATROPURPUREUM","LATITUDE":49.256988999999997,"TREE_ID":17301,"SPECIES_NAME":"CERASIFERA","COMMON_NAME":"PISSARD PLUM","DIAMETER":12.5,"GENUS_NAME":"PRUNUS","LONGITUDE":-123.14031300000001}},{"type":"Feature","geometry":{"type":"Point","coordinates":[-123.14057922363281,49.256992340087891,0]},"properties":{"DATE_PLANTED":"20190602","CULTIVAR_NAME":"ATROPURPUREUM","LATITUDE":49.256991999999997,"TREE_ID":17307,"SPECIES_NAME":"CERASIFERA","COMMON_NAME":"PISSARD PLUM","DIAMETER":15,"GENUS_NAME":"PRUNUS","LONGITUDE":-123.14057699999999}},{"type":"Feature","geometry":{"type":"Point","coordinates":[-123.14097595214844,49.256999969482422,0]},"properties":{"DATE_PLANTED":"20190602","CULTIVAR_NAME":"ATROPURPUREUM","LATITUDE":49.256999999999998,"TREE_ID":17308,"SPECIES_NAME":"CERASIFERA","COMMON_NAME":"PISSARD PLUM","DIAMETER":14,"GENUS_NAME":"PRUNUS","LONGITUDE":-123.140978}},{"type":"Feature","geometry":{"type":"Point","coordinates":[-123.14086151123047,49.256996154785156,0]},"properties":{"DATE_PLANTED":"20190602","CULTIVAR_NAME":"ATROPURPUREUM","LATITUDE":49.256996999999998,"TREE_ID":17309,"SPECIES_NAME":"CERASIFERA","COMMON_NAME":"PISSARD PLUM","DIAMETER":14,"GENUS_NAME":"PRUNUS","LONGITUDE":-123.14086500000001}},{"type":"Feature","geometry":{"type":"Point","coordinates":[-123.14073181152344,49.256996154785156,0]},"properties":{"DATE_PLANTED":"20190602","CULTIVAR_NAME":"ATROPURPUREUM","LATITUDE":49.256996999999998,"TREE_ID":17310,"SPECIES_NAME":"CERASIFERA","COMMON_NAME":"PISSARD PLUM","DIAMETER":17,"GENUS_NAME":"PRUNUS","LONGITUDE":-123.14073500000001}},{"type":"Feature","geometry":{"type":"Point","coordinates":[-123.14234161376953,49.257045745849609,0]},"properties":{"DATE_PLANTED":"20190602","CULTIVAR_NAME":"ATROPURPUREUM","LATITUDE":49.257044,"TREE_ID":17319,"SPECIES_NAME":"CERASIFERA","COMMON_NAME":"PISSARD PLUM","DIAMETER":11.5,"GENUS_NAME":"PRUNUS","LONGITUDE":-123.142343}},{"type":"Feature","geometry":{"type":"Point","coordinates":[-123.14248657226562,49.257049560546875,0]},"properties":{"DATE_PLANTED":"20190602","CULTIVAR_NAME":"ATROPURPUREUM","LATITUDE":49.25705,"TREE_ID":17320,"SPECIES_NAME":"CERASIFERA","COMMON_NAME":"PISSARD PLUM","DIAMETER":10.75,"GENUS_NAME":"PRUNUS","LONGITUDE":-123.142489}},{"type":"Feature","geometry":{"type":"Point","coordinates":[-123.14916229248047,49.256229400634766,0]},"properties":{"DATE_PLANTED":"20190602","CULTIVAR_NAME":" ","LATITUDE":49.256228,"TREE_ID":18501,"SPECIES_NAME":"SATIVA","COMMON_NAME":"SPANISH CHESTNUT","DIAMETER":29.5,"GENUS_NAME":"CASTANEA","LONGITUDE":-123.149163}},{"type":"Feature","geometry":{"type":"Point","coordinates":[-123.14936065673828,49.256328582763672,0]},"properties":{"DATE_PLANTED":"20190602","CULTIVAR_NAME":" ","LATITUDE":49.256328000000003,"TREE_ID":18503,"SPECIES_NAME":"CANADENSIS","COMMON_NAME":"EASTERN HEMLOCK","DIAMETER":11,"GENUS_NAME":"TSUGA","LONGITUDE":-123.149359}},{"type":"Feature","geometry":{"type":"Point","coordinates":[-123.14922332763672,49.256328582763672,0]},"properties":{"DATE_PLANTED":"20190602","CULTIVAR_NAME":" ","LATITUDE":49.256328000000003,"TREE_ID":18504,"SPECIES_NAME":"AMERICANA","COMMON_NAME":"AMERICAN ELM","DIAMETER":40.5,"GENUS_NAME":"ULMUS","LONGITUDE":-123.14922300000001}},{"type":"Feature","geometry":{"type":"Point","coordinates":[-123.15125274658203,49.256359100341797,0]},"properties":{"DATE_PLANTED":"20190602","CULTIVAR_NAME":" ","LATITUDE":49.256360999999998,"TREE_ID":18521,"SPECIES_NAME":"AMERICANA","COMMON_NAME":"AMERICAN ELM","DIAMETER":22,"GENUS_NAME":"ULMUS","LONGITUDE":-123.15125500000001}},{"type":"Feature","geometry":{"type":"Point","coordinates":[-123.15097808837891,49.256355285644531,0]},"properties":{"DATE_PLANTED":"20190602","CULTIVAR_NAME":" ","LATITUDE":49.256355999999997,"TREE_ID":18523,"SPECIES_NAME":"AMERICANA","COMMON_NAME":"AMERICAN ELM","DIAMETER":28,"GENUS_NAME":"ULMUS","LONGITUDE":-123.150981}},{"type":"Feature","geometry":{"type":"Point","coordinates":[-123.15090179443359,49.256427764892578,0]},"properties":{"DATE_PLANTED":"20190602","CULTIVAR_NAME":"ATROPURPUREUM","LATITUDE":49.256428,"TREE_ID":18524,"SPECIES_NAME":"CERASIFERA","COMMON_NAME":"PISSARD PLUM","DIAMETER":6,"GENUS_NAME":"PRUNUS","LONGITUDE":-123.150898}},{"type":"Feature","geometry":{"type":"Point","coordinates":[-123.15088653564453,49.256507873535156,0]},"properties":{"DATE_PLANTED":"20190602","CULTIVAR_NAME":"ATROPURPUREUM","LATITUDE":49.256507999999997,"TREE_ID":18525,"SPECIES_NAME":"CERASIFERA","COMMON_NAME":"PISSARD PLUM","DIAMETER":6,"GENUS_NAME":"PRUNUS","LONGITUDE":-123.15089}},{"type":"Feature","geometry":{"type":"Point","coordinates":[-123.15088653564453,49.256607055664062,0]},"properties":{"DATE_PLANTED":"20190602","CULTIVAR_NAME":" ","LATITUDE":49.256605999999998,"TREE_ID":18526,"SPECIES_NAME":"CAMPESTRE","COMMON_NAME":"HEDGE MAPLE","DIAMETER":3,"GENUS_NAME":"ACER","LONGITUDE":-123.15088900000001}},{"type":"Feature","geometry":{"type":"Point","coordinates":[-123.15233612060547,49.256282806396484,0]},"properties":{"DATE_PLANTED":"20190602","CULTIVAR_NAME":" ","LATITUDE":49.256281000000001,"TREE_ID":18528,"SPECIES_NAME":"AMERICANA","COMMON_NAME":"AMERICAN ELM","DIAMETER":33,"GENUS_NAME":"ULMUS","LONGITUDE":-123.152334}},{"type":"Feature","geometry":{"type":"Point","coordinates":[-123.14861297607422,49.255302429199219,0]},"properties":{"DATE_PLANTED":"20190602","CULTIVAR_NAME":" ","LATITUDE":49.255302999999998,"TREE_ID":19288,"SPECIES_NAME":"AMERICANA","COMMON_NAME":"AMERICAN ELM","DIAMETER":29.5,"GENUS_NAME":"ULMUS","LONGITUDE":-123.148616}},{"type":"Feature","geometry":{"type":"Point","coordinates":[-123.14875030517578,49.255302429199219,0]},"properties":{"DATE_PLANTED":"20190602","CULTIVAR_NAME":" ","LATITUDE":49.255302999999998,"TREE_ID":19289,"SPECIES_NAME":"AMERICANA","COMMON_NAME":"AMERICAN ELM","DIAMETER":26.25,"GENUS_NAME":"ULMUS","LONGITUDE":-123.148752}},{"type":"Feature","geometry":{"type":"Point","coordinates":[-123.14852905273438,49.254932403564453,0]},"properties":{"DATE_PLANTED":"20190602","CULTIVAR_NAME":" ","LATITUDE":49.254933000000001,"TREE_ID":19291,"SPECIES_NAME":"AMERICANA","COMMON_NAME":"AMERICAN ELM","DIAMETER":33,"GENUS_NAME":"ULMUS","LONGITUDE":-123.148526}},{"type":"Feature","geometry":{"type":"Point","coordinates":[-123.14852142333984,49.255023956298828,0]},"properties":{"DATE_PLANTED":"20190602","CULTIVAR_NAME":" ","LATITUDE":49.255025000000003,"TREE_ID":19292,"SPECIES_NAME":"AMERICANA","COMMON_NAME":"AMERICAN ELM","DIAMETER":19.799999237060547,"GENUS_NAME":"ULMUS","LONGITUDE":-123.148522}},{"type":"Feature","geometry":{"type":"Point","coordinates":[-123.14852142333984,49.255130767822266,0]},"properties":{"DATE_PLANTED":"20190602","CULTIVAR_NAME":" ","LATITUDE":49.255130999999999,"TREE_ID":19293,"SPECIES_NAME":"HIPPOCASTANUM","COMMON_NAME":"COMMON HORSECHESTNUT","DIAMETER":21.299999237060547,"GENUS_NAME":"AESCULUS","LONGITUDE":-123.148518}},{"type":"Feature","geometry":{"type":"Point","coordinates":[-123.14929962158203,49.255409240722656,0]},"properties":{"DATE_PLANTED":"20190602","CULTIVAR_NAME":" ","LATITUDE":49.255411000000002,"TREE_ID":19296,"SPECIES_NAME":"SATIVA","COMMON_NAME":"SPANISH CHESTNUT","DIAMETER":52,"GENUS_NAME":"CASTANEA","LONGITUDE":-123.1493}},{"type":"Feature","geometry":{"type":"Point","coordinates":[-123.14913940429688,49.255409240722656,0]},"properties":{"DATE_PLANTED":"20190602","CULTIVAR_NAME":" ","LATITUDE":49.255408000000003,"TREE_ID":19297,"SPECIES_NAME":"AMERICANA","COMMON_NAME":"AMERICAN ELM","DIAMETER":23.5,"GENUS_NAME":"ULMUS","LONGITUDE":-123.149143}},{"type":"Feature","geometry":{"type":"Point","coordinates":[-123.14960479736328,49.255313873291016,0]},"properties":{"DATE_PLANTED":"20190602","CULTIVAR_NAME":" ","LATITUDE":49.255313999999998,"TREE_ID":19298,"SPECIES_NAME":"AMERICANA","COMMON_NAME":"AMERICAN ELM","DIAMETER":14,"GENUS_NAME":"ULMUS","LONGITUDE":-123.149603}},{"type":"Feature","geometry":{"type":"Point","coordinates":[-123.14966583251953,49.255317687988281,0]},"properties":{"DATE_PLANTED":"20190602","CULTIVAR_NAME":" ","LATITUDE":49.255316999999998,"TREE_ID":19299,"SPECIES_NAME":"AMERICANA","COMMON_NAME":"AMERICAN ELM","DIAMETER":29,"GENUS_NAME":"ULMUS","LONGITUDE":-123.149664}},{"type":"Feature","geometry":{"type":"Point","coordinates":[-123.14945220947266,49.255409240722656,0]},"properties":{"DATE_PLANTED":"20190602","CULTIVAR_NAME":" ","LATITUDE":49.255408000000003,"TREE_ID":19301,"SPECIES_NAME":"AMERICANA","COMMON_NAME":"AMERICAN ELM","DIAMETER":25.5,"GENUS_NAME":"ULMUS","LONGITUDE":-123.149455}},{"type":"Feature","geometry":{"type":"Point","coordinates":[-123.15022277832031,49.255420684814453,0]},"properties":{"DATE_PLANTED":"20190602","CULTIVAR_NAME":" ","LATITUDE":49.255422000000003,"TREE_ID":19302,"SPECIES_NAME":"HIPPOCASTANUM","COMMON_NAME":"COMMON HORSECHESTNUT","DIAMETER":16.5,"GENUS_NAME":"AESCULUS","LONGITUDE":-123.15021900000001}},{"type":"Feature","geometry":{"type":"Point","coordinates":[-123.14998626708984,49.255416870117188,0]},"properties":{"DATE_PLANTED":"20040129","CULTIVAR_NAME":"NORTHWOOD","LATITUDE":49.255417000000001,"TREE_ID":19303,"SPECIES_NAME":"RUBRUM","COMMON_NAME":"NORTHWOOD RED MAPLE","DIAMETER":3,"GENUS_NAME":"ACER","LONGITUDE":-123.149985}},{"type":"Feature","geometry":{"type":"Point","coordinates":[-123.15026092529297,49.255329132080078,0]},"properties":{"DATE_PLANTED":"20190602","CULTIVAR_NAME":" ","LATITUDE":49.255327999999999,"TREE_ID":19304,"SPECIES_NAME":"AMERICANA","COMMON_NAME":"AMERICAN ELM","DIAMETER":30,"GENUS_NAME":"ULMUS","LONGITUDE":-123.150262}},{"type":"Feature","geometry":{"type":"Point","coordinates":[-123.15055847167969,49.255332946777344,0]},"properties":{"DATE_PLANTED":"20190602","CULTIVAR_NAME":" ","LATITUDE":49.255333,"TREE_ID":19307,"SPECIES_NAME":"AMERICANA","COMMON_NAME":"AMERICAN ELM","DIAMETER":27.25,"GENUS_NAME":"ULMUS","LONGITUDE":-123.150555}},{"type":"Feature","geometry":{"type":"Point","coordinates":[-123.1507568359375,49.255245208740234,0]},"properties":{"DATE_PLANTED":"20190602","CULTIVAR_NAME":" ","LATITUDE":49.255243999999998,"TREE_ID":19308,"SPECIES_NAME":"HIPPOCASTANUM","COMMON_NAME":"COMMON HORSECHESTNUT","DIAMETER":28.5,"GENUS_NAME":"AESCULUS","LONGITUDE":-123.150757}},{"type":"Feature","geometry":{"type":"Point","coordinates":[-123.15166473388672,49.255348205566406,0]},"properties":{"DATE_PLANTED":"20190602","CULTIVAR_NAME":" ","LATITUDE":49.25535,"TREE_ID":19314,"SPECIES_NAME":"AMERICANA","COMMON_NAME":"BASSWOOD","DIAMETER":42,"GENUS_NAME":"TILIA","LONGITUDE":-123.151663}},{"type":"Feature","geometry":{"type":"Point","coordinates":[-123.15189361572266,49.255348205566406,0]},"properties":{"DATE_PLANTED":"20190602","CULTIVAR_NAME":" ","LATITUDE":49.25535,"TREE_ID":19315,"SPECIES_NAME":"AMERICANA","COMMON_NAME":"AMERICAN ELM","DIAMETER":48,"GENUS_NAME":"ULMUS","LONGITUDE":-123.151895}},{"type":"Feature","geometry":{"type":"Point","coordinates":[-123.15219116210938,49.255355834960938,0]},"properties":{"DATE_PLANTED":"20190602","CULTIVAR_NAME":" ","LATITUDE":49.255355999999999,"TREE_ID":19316,"SPECIES_NAME":"AMERICANA","COMMON_NAME":"AMERICAN ELM","DIAMETER":44,"GENUS_NAME":"ULMUS","LONGITUDE":-123.152191}},{"type":"Feature","geometry":{"type":"Point","coordinates":[-123.12942504882812,49.256992340087891,0]},"properties":{"DATE_PLANTED":"20190602","CULTIVAR_NAME":"KWANZAN","LATITUDE":49.256993999999999,"TREE_ID":17285,"SPECIES_NAME":"SERRULATA","COMMON_NAME":"KWANZAN FLOWERING CHERRY","DIAMETER":4.5,"GENUS_NAME":"PRUNUS","LONGITUDE":-123.129424}},{"type":"Feature","geometry":{"type":"Point","coordinates":[-123.12958526611328,49.256996154785156,0]},"properties":{"DATE_PLANTED":"20190602","CULTIVAR_NAME":"KWANZAN","LATITUDE":49.256996999999998,"TREE_ID":17286,"SPECIES_NAME":"SERRULATA","COMMON_NAME":"KWANZAN FLOWERING CHERRY","DIAMETER":5.5,"GENUS_NAME":"PRUNUS","LONGITUDE":-123.12958399999999}},{"type":"Feature","geometry":{"type":"Point","coordinates":[-123.12981414794922,49.256996154785156,0]},"properties":{"DATE_PLANTED":"20190602","CULTIVAR_NAME":"KWANZAN","LATITUDE":49.256996999999998,"TREE_ID":17287,"SPECIES_NAME":"SERRULATA","COMMON_NAME":"KWANZAN FLOWERING CHERRY","DIAMETER":8,"GENUS_NAME":"PRUNUS","LONGITUDE":-123.129812}},{"type":"Feature","geometry":{"type":"Point","coordinates":[-123.13010406494141,49.257003784179688,0]},"properties":{"DATE_PLANTED":"20190602","CULTIVAR_NAME":"KWANZAN","LATITUDE":49.257002999999997,"TREE_ID":17289,"SPECIES_NAME":"SERRULATA","COMMON_NAME":"KWANZAN FLOWERING CHERRY","DIAMETER":7,"GENUS_NAME":"PRUNUS","LONGITUDE":-123.130106}},{"type":"Feature","geometry":{"type":"Point","coordinates":[-123.13911437988281,49.256973266601562,0]},"properties":{"DATE_PLANTED":"20190602","CULTIVAR_NAME":"ATROPURPUREUM","LATITUDE":49.256974999999997,"TREE_ID":17290,"SPECIES_NAME":"CERASIFERA","COMMON_NAME":"PISSARD PLUM","DIAMETER":14,"GENUS_NAME":"PRUNUS","LONGITUDE":-123.139112}},{"type":"Feature","geometry":{"type":"Point","coordinates":[-123.13944244384766,49.256984710693359,0]},"properties":{"DATE_PLANTED":"20190602","CULTIVAR_NAME":"ATROPURPUREUM","LATITUDE":49.256982999999998,"TREE_ID":17292,"SPECIES_NAME":"CERASIFERA","COMMON_NAME":"PISSARD PLUM","DIAMETER":14.5,"GENUS_NAME":"PRUNUS","LONGITUDE":-123.13944100000001}},{"type":"Feature","geometry":{"type":"Point","coordinates":[-123.14271545410156,49.257053375244141,0]},"properties":{"DATE_PLANTED":"20190602","CULTIVAR_NAME":"ATROPURPUREUM","LATITUDE":49.257052999999999,"TREE_ID":17333,"SPECIES_NAME":"CERASIFERA","COMMON_NAME":"PISSARD PLUM","DIAMETER":10.5,"GENUS_NAME":"PRUNUS","LONGITUDE":-123.142712}},{"type":"Feature","geometry":{"type":"Point","coordinates":[-123.14298248291016,49.257061004638672,0]},"properties":{"DATE_PLANTED":"20190602","CULTIVAR_NAME":"ATROPURPUREUM","LATITUDE":49.257061,"TREE_ID":17334,"SPECIES_NAME":"CERASIFERA","COMMON_NAME":"PISSARD PLUM","DIAMETER":9.5,"GENUS_NAME":"PRUNUS","LONGITUDE":-123.14297999999999}},{"type":"Feature","geometry":{"type":"Point","coordinates":[-123.14385223388672,49.257076263427734,0]},"properties":{"DATE_PLANTED":"20190602","CULTIVAR_NAME":"ATROPURPUREUM","LATITUDE":49.257075,"TREE_ID":17336,"SPECIES_NAME":"CERASIFERA","COMMON_NAME":"PISSARD PLUM","DIAMETER":10,"GENUS_NAME":"PRUNUS","LONGITUDE":-123.143854}},{"type":"Feature","geometry":{"type":"Point","coordinates":[-123.14440155029297,49.257080078125,0]},"properties":{"DATE_PLANTED":"20190602","CULTIVAR_NAME":"ATROPURPUREUM","LATITUDE":49.257080999999999,"TREE_ID":17337,"SPECIES_NAME":"CERASIFERA","COMMON_NAME":"PISSARD PLUM","DIAMETER":7.5,"GENUS_NAME":"PRUNUS","LONGITUDE":-123.144401}},{"type":"Feature","geometry":{"type":"Point","coordinates":[-123.14679718017578,49.257114410400391,0]},"properties":{"DATE_PLANTED":"20190602","CULTIVAR_NAME":"ATROPURPUREUM","LATITUDE":49.257114000000001,"TREE_ID":17367,"SPECIES_NAME":"CERASIFERA","COMMON_NAME":"PISSARD PLUM","DIAMETER":9,"GENUS_NAME":"PRUNUS","LONGITUDE":-123.1468}},{"type":"Feature","geometry":{"type":"Point","coordinates":[-123.14693450927734,49.257118225097656,0]},"properties":{"DATE_PLANTED":"20190602","CULTIVAR_NAME":"ATROPURPUREUM","LATITUDE":49.257117000000001,"TREE_ID":17368,"SPECIES_NAME":"CERASIFERA","COMMON_NAME":"PISSARD PLUM","DIAMETER":8.5,"GENUS_NAME":"PRUNUS","LONGITUDE":-123.146934}},{"type":"Feature","geometry":{"type":"Point","coordinates":[-123.14705657958984,49.257118225097656,0]},"properties":{"DATE_PLANTED":"20190602","CULTIVAR_NAME":"ATROPURPUREUM","LATITUDE":49.257119000000003,"TREE_ID":17369,"SPECIES_NAME":"CERASIFERA","COMMON_NAME":"PISSARD PLUM","DIAMETER":4,"GENUS_NAME":"PRUNUS","LONGITUDE":-123.147059}},{"type":"Feature","geometry":{"type":"Point","coordinates":[-123.14719390869141,49.257122039794922,0]},"properties":{"DATE_PLANTED":"20190602","CULTIVAR_NAME":"ATROPURPUREUM","LATITUDE":49.257122000000003,"TREE_ID":17370,"SPECIES_NAME":"CERASIFERA","COMMON_NAME":"PISSARD PLUM","DIAMETER":6.5,"GENUS_NAME":"PRUNUS","LONGITUDE":-123.14719100000001}},{"type":"Feature","geometry":{"type":"Point","coordinates":[-123.14732360839844,49.257125854492188,0]},"properties":{"DATE_PLANTED":"20190602","CULTIVAR_NAME":"ATROPURPUREUM","LATITUDE":49.257125000000002,"TREE_ID":17371,"SPECIES_NAME":"CERASIFERA","COMMON_NAME":"PISSARD PLUM","DIAMETER":5,"GENUS_NAME":"PRUNUS","LONGITUDE":-123.14732600000001}},{"type":"Feature","geometry":{"type":"Point","coordinates":[-123.14746856689453,49.257125854492188,0]},"properties":{"DATE_PLANTED":"20190602","CULTIVAR_NAME":"ATROPURPUREUM","LATITUDE":49.257125000000002,"TREE_ID":17376,"SPECIES_NAME":"CERASIFERA","COMMON_NAME":"PISSARD PLUM","DIAMETER":11,"GENUS_NAME":"PRUNUS","LONGITUDE":-123.14747199999999}},{"type":"Feature","geometry":{"type":"Point","coordinates":[-123.14774322509766,49.257129669189453,0]},"properties":{"DATE_PLANTED":"20190602","CULTIVAR_NAME":"ATROPURPUREUM","LATITUDE":49.257131000000001,"TREE_ID":17377,"SPECIES_NAME":"CERASIFERA","COMMON_NAME":"PISSARD PLUM","DIAMETER":13,"GENUS_NAME":"PRUNUS","LONGITUDE":-123.147741}},{"type":"Feature","geometry":{"type":"Point","coordinates":[-123.14814758300781,49.257133483886719,0]},"properties":{"DATE_PLANTED":"20190602","CULTIVAR_NAME":"ATROPURPUREUM","LATITUDE":49.257133000000003,"TREE_ID":17388,"SPECIES_NAME":"CERASIFERA","COMMON_NAME":"PISSARD PLUM","DIAMETER":11,"GENUS_NAME":"PRUNUS","LONGITUDE":-123.148149}},{"type":"Feature","geometry":{"type":"Point","coordinates":[-123.14830017089844,49.256954193115234,0]},"properties":{"DATE_PLANTED":"20050314","CULTIVAR_NAME":" ","LATITUDE":49.256953000000003,"TREE_ID":17392,"SPECIES_NAME":"LAVALLEI  X","COMMON_NAME":"LAVALLEI HYBRID HAWTHORN","DIAMETER":5,"GENUS_NAME":"CRATAEGUS","LONGITUDE":-123.148302}},{"type":"Feature","geometry":{"type":"Point","coordinates":[-123.14494323730469,49.257087707519531,0]},"properties":{"DATE_PLANTED":"20190602","CULTIVAR_NAME":"ATROPURPUREUM","LATITUDE":49.257089000000001,"TREE_ID":17349,"SPECIES_NAME":"CERASIFERA","COMMON_NAME":"PISSARD PLUM","DIAMETER":3,"GENUS_NAME":"PRUNUS","LONGITUDE":-123.144947}},{"type":"Feature","geometry":{"type":"Point","coordinates":[-123.14775848388672,49.256206512451172,0]},"properties":{"DATE_PLANTED":"20050311","CULTIVAR_NAME":" ","LATITUDE":49.256205999999999,"TREE_ID":17393,"SPECIES_NAME":"KOBUS","COMMON_NAME":"KOBUS MAGNOLIA ","DIAMETER":3,"GENUS_NAME":"MAGNOLIA","LONGITUDE":-123.147756}},{"type":"Feature","geometry":{"type":"Point","coordinates":[-123.14871978759766,49.257144927978516,0]},"properties":{"DATE_PLANTED":"20190602","CULTIVAR_NAME":"ATROPURPUREUM","LATITUDE":49.257143999999997,"TREE_ID":17394,"SPECIES_NAME":"CERASIFERA","COMMON_NAME":"PISSARD PLUM","DIAMETER":8,"GENUS_NAME":"PRUNUS","LONGITUDE":-123.14872099999999}},{"type":"Feature","geometry":{"type":"Point","coordinates":[-123.14845275878906,49.256782531738281,0]},"properties":{"DATE_PLANTED":"20190602","CULTIVAR_NAME":" ","LATITUDE":49.256782999999999,"TREE_ID":17396,"SPECIES_NAME":"HIPPOCASTANUM","COMMON_NAME":"COMMON HORSECHESTNUT","DIAMETER":32,"GENUS_NAME":"AESCULUS","LONGITUDE":-123.148456}},{"type":"Feature","geometry":{"type":"Point","coordinates":[-123.14845275878906,49.256851196289062,0]},"properties":{"DATE_PLANTED":"20190602","CULTIVAR_NAME":" ","LATITUDE":49.25685,"TREE_ID":17397,"SPECIES_NAME":"HIPPOCASTANUM","COMMON_NAME":"COMMON HORSECHESTNUT","DIAMETER":28,"GENUS_NAME":"AESCULUS","LONGITUDE":-123.148453}},{"type":"Feature","geometry":{"type":"Point","coordinates":[-123.14844512939453,49.256942749023438,0]},"properties":{"DATE_PLANTED":"20190602","CULTIVAR_NAME":" ","LATITUDE":49.256943999999997,"TREE_ID":17398,"SPECIES_NAME":"HIPPOCASTANUM","COMMON_NAME":"COMMON HORSECHESTNUT","DIAMETER":26,"GENUS_NAME":"AESCULUS","LONGITUDE":-123.148447}},{"type":"Feature","geometry":{"type":"Point","coordinates":[-123.14844512939453,49.257034301757812,0]},"properties":{"DATE_PLANTED":"20190602","CULTIVAR_NAME":" ","LATITUDE":49.257035999999999,"TREE_ID":17399,"SPECIES_NAME":"HIPPOCASTANUM","COMMON_NAME":"COMMON HORSECHESTNUT","DIAMETER":26,"GENUS_NAME":"AESCULUS","LONGITUDE":-123.148447}},{"type":"Feature","geometry":{"type":"Point","coordinates":[-123.14899444580078,49.257148742675781,0]},"properties":{"DATE_PLANTED":"20190602","CULTIVAR_NAME":"ATROPURPUREUM","LATITUDE":49.257147000000003,"TREE_ID":17410,"SPECIES_NAME":"CERASIFERA","COMMON_NAME":"PISSARD PLUM","DIAMETER":10,"GENUS_NAME":"PRUNUS","LONGITUDE":-123.148994}},{"type":"Feature","geometry":{"type":"Point","coordinates":[-123.14944458007812,49.257156372070312,0]},"properties":{"DATE_PLANTED":"20190602","CULTIVAR_NAME":"ATROPURPUREUM","LATITUDE":49.257156000000002,"TREE_ID":17414,"SPECIES_NAME":"CERASIFERA","COMMON_NAME":"PISSARD PLUM","DIAMETER":10,"GENUS_NAME":"PRUNUS","LONGITUDE":-123.149441}},{"type":"Feature","geometry":{"type":"Point","coordinates":[-123.14955139160156,49.257156372070312,0]},"properties":{"DATE_PLANTED":"20190602","CULTIVAR_NAME":"ATROPURPUREUM","LATITUDE":49.257156000000002,"TREE_ID":17415,"SPECIES_NAME":"CERASIFERA","COMMON_NAME":"PISSARD PLUM","DIAMETER":9,"GENUS_NAME":"PRUNUS","LONGITUDE":-123.14955399999999}},{"type":"Feature","geometry":{"type":"Point","coordinates":[-123.14969635009766,49.257156372070312,0]},"properties":{"DATE_PLANTED":"20190602","CULTIVAR_NAME":"ATROPURPUREUM","LATITUDE":49.257157999999997,"TREE_ID":17416,"SPECIES_NAME":"CERASIFERA","COMMON_NAME":"PISSARD PLUM","DIAMETER":8,"GENUS_NAME":"PRUNUS","LONGITUDE":-123.149693}},{"type":"Feature","geometry":{"type":"Point","coordinates":[-123.14995574951172,49.257164001464844,0]},"properties":{"DATE_PLANTED":"20190602","CULTIVAR_NAME":"ATROPURPUREUM","LATITUDE":49.257164000000003,"TREE_ID":17421,"SPECIES_NAME":"CERASIFERA","COMMON_NAME":"PISSARD PLUM","DIAMETER":14.5,"GENUS_NAME":"PRUNUS","LONGITUDE":-123.14995500000001}},{"type":"Feature","geometry":{"type":"Point","coordinates":[-123.13268280029297,49.249313354492188,0]},"properties":{"DATE_PLANTED":"20091222","CULTIVAR_NAME":" ","LATITUDE":49.249313999999998,"TREE_ID":23268,"SPECIES_NAME":"GRANDIS","COMMON_NAME":"GRAND FIR","DIAMETER":6,"GENUS_NAME":"ABIES","LONGITUDE":-123.13268600000001}},{"type":"Feature","geometry":{"type":"Point","coordinates":[-123.13111114501953,49.249286651611328,0]},"properties":{"DATE_PLANTED":"20101221","CULTIVAR_NAME":"VANDERWOLFS PYRAMID","LATITUDE":49.249285999999998,"TREE_ID":23269,"SPECIES_NAME":"FLEXILUS","COMMON_NAME":"VANDERWOLFS PINE","DIAMETER":3,"GENUS_NAME":"PINUS","LONGITUDE":-123.131112}},{"type":"Feature","geometry":{"type":"Point","coordinates":[-123.15104675292969,49.2545166015625,0]},"properties":{"DATE_PLANTED":"20190602","CULTIVAR_NAME":" ","LATITUDE":49.254517,"TREE_ID":20432,"SPECIES_NAME":"AMERICANA","COMMON_NAME":"AMERICAN ELM","DIAMETER":33,"GENUS_NAME":"ULMUS","LONGITUDE":-123.151048}},{"type":"Feature","geometry":{"type":"Point","coordinates":[-123.15097045898438,49.254566192626953,0]},"properties":{"DATE_PLANTED":"20190602","CULTIVAR_NAME":" ","LATITUDE":49.254567000000002,"TREE_ID":20433,"SPECIES_NAME":"RUBRUM","COMMON_NAME":"RED MAPLE","DIAMETER":28,"GENUS_NAME":"ACER","LONGITUDE":-123.15096800000001}},{"type":"Feature","geometry":{"type":"Point","coordinates":[-123.15095520019531,49.254680633544922,0]},"properties":{"DATE_PLANTED":"20190602","CULTIVAR_NAME":" ","LATITUDE":49.254680999999998,"TREE_ID":20434,"SPECIES_NAME":"SYLVESTRIS","COMMON_NAME":"SCOTCH PINE","DIAMETER":27,"GENUS_NAME":"PINUS","LONGITUDE":-123.15095700000001}},{"type":"Feature","geometry":{"type":"Point","coordinates":[-123.15095520019531,49.254791259765625,0]},"properties":{"DATE_PLANTED":"20190602","CULTIVAR_NAME":" ","LATITUDE":49.254792000000002,"TREE_ID":20435,"SPECIES_NAME":"PLATANOIDES","COMMON_NAME":"NORWAY MAPLE","DIAMETER":24,"GENUS_NAME":"ACER","LONGITUDE":-123.15095700000001}},{"type":"Feature","geometry":{"type":"Point","coordinates":[-123.1513671875,49.253513336181641,0]},"properties":{"DATE_PLANTED":"20190602","CULTIVAR_NAME":" ","LATITUDE":49.253514000000003,"TREE_ID":21598,"SPECIES_NAME":"SATIVA","COMMON_NAME":"SPANISH CHESTNUT","DIAMETER":40,"GENUS_NAME":"CASTANEA","LONGITUDE":-123.15137}},{"type":"Feature","geometry":{"type":"Point","coordinates":[-123.15122985839844,49.253509521484375,0]},"properties":{"DATE_PLANTED":"20190602","CULTIVAR_NAME":" ","LATITUDE":49.253507999999997,"TREE_ID":21599,"SPECIES_NAME":"EUCHLORA   X","COMMON_NAME":"CRIMEAN LINDEN","DIAMETER":21,"GENUS_NAME":"TILIA","LONGITUDE":-123.15123}},{"type":"Feature","geometry":{"type":"Point","coordinates":[-123.15109252929688,49.253505706787109,0]},"properties":{"DATE_PLANTED":"20190602","CULTIVAR_NAME":" ","LATITUDE":49.253506000000002,"TREE_ID":21600,"SPECIES_NAME":"SPECIES","COMMON_NAME":"OAK SPECIES","DIAMETER":47,"GENUS_NAME":"QUERCUS","LONGITUDE":-123.15109099999999}},{"type":"Feature","geometry":{"type":"Point","coordinates":[-123.1510009765625,49.253555297851562,0]},"properties":{"DATE_PLANTED":"20190602","CULTIVAR_NAME":" ","LATITUDE":49.253556000000003,"TREE_ID":21601,"SPECIES_NAME":"PSEUDOPLATANUS","COMMON_NAME":"SYCAMORE MAPLE","DIAMETER":23,"GENUS_NAME":"ACER","LONGITUDE":-123.150999}},{"type":"Feature","geometry":{"type":"Point","coordinates":[-123.15099334716797,49.253631591796875,0]},"properties":{"DATE_PLANTED":"20190602","CULTIVAR_NAME":" ","LATITUDE":49.253630999999999,"TREE_ID":21602,"SPECIES_NAME":"PSEUDOPLATANUS","COMMON_NAME":"SYCAMORE MAPLE","DIAMETER":12,"GENUS_NAME":"ACER","LONGITUDE":-123.15099600000001}},{"type":"Feature","geometry":{"type":"Point","coordinates":[-123.15098571777344,49.253814697265625,0]},"properties":{"DATE_PLANTED":"20190602","CULTIVAR_NAME":" ","LATITUDE":49.253813999999998,"TREE_ID":21604,"SPECIES_NAME":"PSEUDOPLATANUS","COMMON_NAME":"SYCAMORE MAPLE","DIAMETER":20,"GENUS_NAME":"ACER","LONGITUDE":-123.150986}},{"type":"Feature","geometry":{"type":"Point","coordinates":[-123.15098571777344,49.253917694091797,0]},"properties":{"DATE_PLANTED":"20190602","CULTIVAR_NAME":" ","LATITUDE":49.253917000000001,"TREE_ID":21605,"SPECIES_NAME":"PSEUDOPLATANUS","COMMON_NAME":"SYCAMORE MAPLE","DIAMETER":12,"GENUS_NAME":"ACER","LONGITUDE":-123.15098500000001}},{"type":"Feature","geometry":{"type":"Point","coordinates":[-123.15151214599609,49.253509521484375,0]},"properties":{"DATE_PLANTED":"20190602","CULTIVAR_NAME":" ","LATITUDE":49.253507999999997,"TREE_ID":21606,"SPECIES_NAME":"EUCHLORA   X","COMMON_NAME":"CRIMEAN LINDEN","DIAMETER":24,"GENUS_NAME":"TILIA","LONGITUDE":-123.151509}},{"type":"Feature","geometry":{"type":"Point","coordinates":[-123.15208435058594,49.253448486328125,0]},"properties":{"DATE_PLANTED":"20190602","CULTIVAR_NAME":" ","LATITUDE":49.253450000000001,"TREE_ID":21608,"SPECIES_NAME":"EUCHLORA   X","COMMON_NAME":"CRIMEAN LINDEN","DIAMETER":14,"GENUS_NAME":"TILIA","LONGITUDE":-123.152083}},{"type":"Feature","geometry":{"type":"Point","coordinates":[-123.15195465087891,49.253471374511719,0]},"properties":{"DATE_PLANTED":"20190602","CULTIVAR_NAME":" ","LATITUDE":49.253472000000002,"TREE_ID":21609,"SPECIES_NAME":"SATIVA","COMMON_NAME":"SPANISH CHESTNUT","DIAMETER":48,"GENUS_NAME":"CASTANEA","LONGITUDE":-123.15195300000001}},{"type":"Feature","geometry":{"type":"Point","coordinates":[-123.15245056152344,49.253421783447266,0]},"properties":{"DATE_PLANTED":"20190602","CULTIVAR_NAME":" ","LATITUDE":49.253422,"TREE_ID":21610,"SPECIES_NAME":"AMERICANA","COMMON_NAME":"AMERICAN ELM","DIAMETER":26,"GENUS_NAME":"ULMUS","LONGITUDE":-123.152451}},{"type":"Feature","geometry":{"type":"Point","coordinates":[-123.14635467529297,49.254535675048828,0]},"properties":{"DATE_PLANTED":"20190602","CULTIVAR_NAME":" ","LATITUDE":49.254536000000002,"TREE_ID":20374,"SPECIES_NAME":"EXCELSIOR","COMMON_NAME":"EUROPEAN ASH","DIAMETER":14.5,"GENUS_NAME":"FRAXINUS","LONGITUDE":-123.146354}},{"type":"Feature","geometry":{"type":"Point","coordinates":[-123.14652252197266,49.254520416259766,0]},"properties":{"DATE_PLANTED":"20190602","CULTIVAR_NAME":" ","LATITUDE":49.254522000000001,"TREE_ID":20375,"SPECIES_NAME":"EXCELSIOR","COMMON_NAME":"EUROPEAN ASH","DIAMETER":17,"GENUS_NAME":"FRAXINUS","LONGITUDE":-123.14652599999999}},{"type":"Feature","geometry":{"type":"Point","coordinates":[-123.14682769775391,49.254501342773438,0]},"properties":{"DATE_PLANTED":"20190602","CULTIVAR_NAME":" ","LATITUDE":49.2545,"TREE_ID":20376,"SPECIES_NAME":"EXCELSIOR","COMMON_NAME":"EUROPEAN ASH","DIAMETER":32,"GENUS_NAME":"FRAXINUS","LONGITUDE":-123.146828}},{"type":"Feature","geometry":{"type":"Point","coordinates":[-123.14656066894531,49.254104614257812,0]},"properties":{"DATE_PLANTED":"20190602","CULTIVAR_NAME":" ","LATITUDE":49.254103000000001,"TREE_ID":20377,"SPECIES_NAME":"EUCHLORA   X","COMMON_NAME":"CRIMEAN LINDEN","DIAMETER":26,"GENUS_NAME":"TILIA","LONGITUDE":-123.146563}},{"type":"Feature","geometry":{"type":"Point","coordinates":[-123.14652252197266,49.254165649414062,0]},"properties":{"DATE_PLANTED":"20190602","CULTIVAR_NAME":" ","LATITUDE":49.254167000000002,"TREE_ID":20378,"SPECIES_NAME":"EUCHLORA   X","COMMON_NAME":"CRIMEAN LINDEN","DIAMETER":21,"GENUS_NAME":"TILIA","LONGITUDE":-123.14652}},{"type":"Feature","geometry":{"type":"Point","coordinates":[-123.14639282226562,49.254325866699219,0]},"properties":{"DATE_PLANTED":"20190602","CULTIVAR_NAME":" ","LATITUDE":49.254325000000001,"TREE_ID":20380,"SPECIES_NAME":"EXCELSIOR","COMMON_NAME":"EUROPEAN ASH","DIAMETER":24,"GENUS_NAME":"FRAXINUS","LONGITUDE":-123.146393}},{"type":"Feature","geometry":{"type":"Point","coordinates":[-123.14628601074219,49.254428863525391,0]},"properties":{"DATE_PLANTED":"20190602","CULTIVAR_NAME":" ","LATITUDE":49.254427999999997,"TREE_ID":20381,"SPECIES_NAME":"EXCELSIOR","COMMON_NAME":"EUROPEAN ASH","DIAMETER":18,"GENUS_NAME":"FRAXINUS","LONGITUDE":-123.14628399999999}},{"type":"Feature","geometry":{"type":"Point","coordinates":[-123.14685821533203,49.254596710205078,0]},"properties":{"DATE_PLANTED":"20190602","CULTIVAR_NAME":" ","LATITUDE":49.254596999999997,"TREE_ID":20382,"SPECIES_NAME":"AMERICANA","COMMON_NAME":"AMERICAN ELM","DIAMETER":37,"GENUS_NAME":"ULMUS","LONGITUDE":-123.146857}},{"type":"Feature","geometry":{"type":"Point","coordinates":[-123.14654541015625,49.254619598388672,0]},"properties":{"DATE_PLANTED":"20190602","CULTIVAR_NAME":" ","LATITUDE":49.254618999999998,"TREE_ID":20384,"SPECIES_NAME":"AMERICANA","COMMON_NAME":"AMERICAN ELM","DIAMETER":41,"GENUS_NAME":"ULMUS","LONGITUDE":-123.146542}},{"type":"Feature","geometry":{"type":"Point","coordinates":[-123.1463623046875,49.254634857177734,0]},"properties":{"DATE_PLANTED":"20020228","CULTIVAR_NAME":"VILLAGE GREEN","LATITUDE":49.254635999999998,"TREE_ID":20385,"SPECIES_NAME":"SERRATA","COMMON_NAME":"VILLAGE GREEN ZELKOVA ","DIAMETER":2,"GENUS_NAME":"ZELKOVA","LONGITUDE":-123.14636400000001}},{"type":"Feature","geometry":{"type":"Point","coordinates":[-123.14694976806641,49.254493713378906,0]},"properties":{"DATE_PLANTED":"19980505","CULTIVAR_NAME":"BRIOTTI","LATITUDE":49.254491999999999,"TREE_ID":20387,"SPECIES_NAME":"CARNEA   X","COMMON_NAME":"RUBY RED HORSECHESTNUT","DIAMETER":4.5,"GENUS_NAME":"AESCULUS","LONGITUDE":-123.146947}},{"type":"Feature","geometry":{"type":"Point","coordinates":[-123.14830780029297,49.256778717041016,0]},"properties":{"DATE_PLANTED":"20050314","CULTIVAR_NAME":" ","LATITUDE":49.256777999999997,"TREE_ID":20388,"SPECIES_NAME":"LAVALLEI  X","COMMON_NAME":"LAVALLEI HYBRID HAWTHORN","DIAMETER":6,"GENUS_NAME":"CRATAEGUS","LONGITUDE":-123.148307}},{"type":"Feature","geometry":{"type":"Point","coordinates":[-123.14751434326172,49.254447937011719,0]},"properties":{"DATE_PLANTED":"20190602","CULTIVAR_NAME":" ","LATITUDE":49.254446999999999,"TREE_ID":20389,"SPECIES_NAME":"AMERICANA","COMMON_NAME":"AMERICAN ELM","DIAMETER":22.5,"GENUS_NAME":"ULMUS","LONGITUDE":-123.147514}},{"type":"Feature","geometry":{"type":"Point","coordinates":[-123.14777374267578,49.254432678222656,0]},"properties":{"DATE_PLANTED":"20190602","CULTIVAR_NAME":" ","LATITUDE":49.254430999999997,"TREE_ID":20390,"SPECIES_NAME":"AMERICANA","COMMON_NAME":"AMERICAN ELM","DIAMETER":32.25,"GENUS_NAME":"ULMUS","LONGITUDE":-123.147774}},{"type":"Feature","geometry":{"type":"Point","coordinates":[-123.14899444580078,49.254489898681641,0]},"properties":{"DATE_PLANTED":"20190602","CULTIVAR_NAME":" ","LATITUDE":49.254489,"TREE_ID":20391,"SPECIES_NAME":"HIPPOCASTANUM","COMMON_NAME":"COMMON HORSECHESTNUT","DIAMETER":34,"GENUS_NAME":"AESCULUS","LONGITUDE":-123.148994}},{"type":"Feature","geometry":{"type":"Point","coordinates":[-123.14874267578125,49.254482269287109,0]},"properties":{"DATE_PLANTED":"20190602","CULTIVAR_NAME":" ","LATITUDE":49.254483,"TREE_ID":20392,"SPECIES_NAME":"HIPPOCASTANUM","COMMON_NAME":"COMMON HORSECHESTNUT","DIAMETER":26.25,"GENUS_NAME":"AESCULUS","LONGITUDE":-123.14874399999999}},{"type":"Feature","geometry":{"type":"Point","coordinates":[-123.14853668212891,49.254795074462891,0]},"properties":{"DATE_PLANTED":"20190602","CULTIVAR_NAME":" ","LATITUDE":49.254793999999997,"TREE_ID":20396,"SPECIES_NAME":"MENZIESII","COMMON_NAME":"DOUGLAS FIR","DIAMETER":31,"GENUS_NAME":"PSEUDOTSUGA","LONGITUDE":-123.148539}},{"type":"Feature","geometry":{"type":"Point","coordinates":[-123.14853668212891,49.254848480224609,0]},"properties":{"DATE_PLANTED":"20190602","CULTIVAR_NAME":" ","LATITUDE":49.254846999999998,"TREE_ID":20397,"SPECIES_NAME":"RUBRUM","COMMON_NAME":"RED MAPLE","DIAMETER":14,"GENUS_NAME":"ACER","LONGITUDE":-123.148535}},{"type":"Feature","geometry":{"type":"Point","coordinates":[-123.14943695068359,49.254482269287109,0]},"properties":{"DATE_PLANTED":"20190602","CULTIVAR_NAME":" ","LATITUDE":49.254483,"TREE_ID":20398,"SPECIES_NAME":"AMERICANA","COMMON_NAME":"AMERICAN ELM","DIAMETER":28.5,"GENUS_NAME":"ULMUS","LONGITUDE":-123.149434}},{"type":"Feature","geometry":{"type":"Point","coordinates":[-123.14912414550781,49.254482269287109,0]},"properties":{"DATE_PLANTED":"20190602","CULTIVAR_NAME":" ","LATITUDE":49.254483,"TREE_ID":20399,"SPECIES_NAME":"AMERICANA","COMMON_NAME":"AMERICAN ELM","DIAMETER":33,"GENUS_NAME":"ULMUS","LONGITUDE":-123.14912200000001}},{"type":"Feature","geometry":{"type":"Point","coordinates":[-123.14936065673828,49.254390716552734,0]},"properties":{"DATE_PLANTED":"19980505","CULTIVAR_NAME":"BRIOTTI","LATITUDE":49.254392000000003,"TREE_ID":20400,"SPECIES_NAME":"CARNEA   X","COMMON_NAME":"RUBY RED HORSECHESTNUT","DIAMETER":3,"GENUS_NAME":"AESCULUS","LONGITUDE":-123.14935800000001}},{"type":"Feature","geometry":{"type":"Point","coordinates":[-123.14985656738281,49.254501342773438,0]},"properties":{"DATE_PLANTED":"20190602","CULTIVAR_NAME":" ","LATITUDE":49.2545,"TREE_ID":20402,"SPECIES_NAME":"HIPPOCASTANUM","COMMON_NAME":"COMMON HORSECHESTNUT","DIAMETER":30,"GENUS_NAME":"AESCULUS","LONGITUDE":-123.149854}},{"type":"Feature","geometry":{"type":"Point","coordinates":[-123.14972686767578,49.254501342773438,0]},"properties":{"DATE_PLANTED":"20190602","CULTIVAR_NAME":" ","LATITUDE":49.2545,"TREE_ID":20403,"SPECIES_NAME":"AMERICANA","COMMON_NAME":"AMERICAN ELM","DIAMETER":31,"GENUS_NAME":"ULMUS","LONGITUDE":-123.14973000000001}},{"type":"Feature","geometry":{"type":"Point","coordinates":[-123.1495361328125,49.254493713378906,0]},"properties":{"DATE_PLANTED":"20190602","CULTIVAR_NAME":" ","LATITUDE":49.254491999999999,"TREE_ID":20404,"SPECIES_NAME":"HIPPOCASTANUM","COMMON_NAME":"COMMON HORSECHESTNUT","DIAMETER":27,"GENUS_NAME":"AESCULUS","LONGITUDE":-123.14953800000001}},{"type":"Feature","geometry":{"type":"Point","coordinates":[-123.14982604980469,49.254398345947266,0]},"properties":{"DATE_PLANTED":"20190602","CULTIVAR_NAME":" ","LATITUDE":49.254396999999997,"TREE_ID":20405,"SPECIES_NAME":"MACROPHYLLUM","COMMON_NAME":"BIGLEAF MAPLE","DIAMETER":27,"GENUS_NAME":"ACER","LONGITUDE":-123.14982500000001}},{"type":"Feature","geometry":{"type":"Point","coordinates":[-123.14991760253906,49.254398345947266,0]},"properties":{"DATE_PLANTED":"20190602","CULTIVAR_NAME":" ","LATITUDE":49.254399999999997,"TREE_ID":20406,"SPECIES_NAME":"HIPPOCASTANUM","COMMON_NAME":"COMMON HORSECHESTNUT","DIAMETER":29,"GENUS_NAME":"AESCULUS","LONGITUDE":-123.149919}},{"type":"Feature","geometry":{"type":"Point","coordinates":[-123.15052795410156,49.254409790039062,0]},"properties":{"DATE_PLANTED":"20030117","CULTIVAR_NAME":" ","LATITUDE":49.254407999999998,"TREE_ID":20417,"SPECIES_NAME":"HIPPOCASTANUM","COMMON_NAME":"COMMON HORSECHESTNUT","DIAMETER":23.25,"GENUS_NAME":"AESCULUS","LONGITUDE":-123.150525}},{"type":"Feature","geometry":{"type":"Point","coordinates":[-123.15078735351562,49.254344940185547,0]},"properties":{"DATE_PLANTED":"20190602","CULTIVAR_NAME":" ","LATITUDE":49.254344000000003,"TREE_ID":20418,"SPECIES_NAME":"PLATANOIDES","COMMON_NAME":"NORWAY MAPLE","DIAMETER":17.5,"GENUS_NAME":"ACER","LONGITUDE":-123.15078800000001}},{"type":"Feature","geometry":{"type":"Point","coordinates":[-123.15078735351562,49.254230499267578,0]},"properties":{"DATE_PLANTED":"20190602","CULTIVAR_NAME":" ","LATITUDE":49.254230999999997,"TREE_ID":20419,"SPECIES_NAME":"AMERICANA","COMMON_NAME":"AMERICAN ELM","DIAMETER":19,"GENUS_NAME":"ULMUS","LONGITUDE":-123.150791}},{"type":"Feature","geometry":{"type":"Point","coordinates":[-123.15150451660156,49.254421234130859,0]},"properties":{"DATE_PLANTED":"20190602","CULTIVAR_NAME":"CRIMSON KING","LATITUDE":49.254421999999998,"TREE_ID":20437,"SPECIES_NAME":"PLATANOIDES","COMMON_NAME":"CRIMSON KING NORWAY MAPLE","DIAMETER":22,"GENUS_NAME":"ACER","LONGITUDE":-123.15150800000001}},{"type":"Feature","geometry":{"type":"Point","coordinates":[-123.15164184570312,49.254428863525391,0]},"properties":{"DATE_PLANTED":"20190602","CULTIVAR_NAME":"CRIMSON KING","LATITUDE":49.254427999999997,"TREE_ID":20438,"SPECIES_NAME":"PLATANOIDES","COMMON_NAME":"CRIMSON KING NORWAY MAPLE","DIAMETER":16,"GENUS_NAME":"ACER","LONGITUDE":-123.151639}},{"type":"Feature","geometry":{"type":"Point","coordinates":[-123.15176391601562,49.254425048828125,0]},"properties":{"DATE_PLANTED":"20190602","CULTIVAR_NAME":" ","LATITUDE":49.254424999999998,"TREE_ID":20439,"SPECIES_NAME":"AMERICANA","COMMON_NAME":"AMERICAN ELM","DIAMETER":40,"GENUS_NAME":"ULMUS","LONGITUDE":-123.151763}},{"type":"Feature","geometry":{"type":"Point","coordinates":[-123.15177154541016,49.254520416259766,0]},"properties":{"DATE_PLANTED":"20190602","CULTIVAR_NAME":" ","LATITUDE":49.254519000000002,"TREE_ID":20440,"SPECIES_NAME":"AMERICANA","COMMON_NAME":"AMERICAN ELM","DIAMETER":39.5,"GENUS_NAME":"ULMUS","LONGITUDE":-123.151769}},{"type":"Feature","geometry":{"type":"Point","coordinates":[-123.15162658691406,49.254520416259766,0]},"properties":{"DATE_PLANTED":"20190602","CULTIVAR_NAME":"SCHWEDLERI","LATITUDE":49.254522000000001,"TREE_ID":20441,"SPECIES_NAME":"PLATANOIDES","COMMON_NAME":"SCHWEDLER NORWAY MAPLE","DIAMETER":20.5,"GENUS_NAME":"ACER","LONGITUDE":-123.151623}},{"type":"Feature","geometry":{"type":"Point","coordinates":[-123.15142059326172,49.254520416259766,0]},"properties":{"DATE_PLANTED":"20190602","CULTIVAR_NAME":"SCHWEDLERI","LATITUDE":49.254522000000001,"TREE_ID":20442,"SPECIES_NAME":"PLATANOIDES","COMMON_NAME":"SCHWEDLER NORWAY MAPLE","DIAMETER":22,"GENUS_NAME":"ACER","LONGITUDE":-123.151419}},{"type":"Feature","geometry":{"type":"Point","coordinates":[-123.15045166015625,49.254505157470703,0]},"properties":{"DATE_PLANTED":"20190602","CULTIVAR_NAME":" ","LATITUDE":49.254505999999999,"TREE_ID":20421,"SPECIES_NAME":"HIPPOCASTANUM","COMMON_NAME":"COMMON HORSECHESTNUT","DIAMETER":26,"GENUS_NAME":"AESCULUS","LONGITUDE":-123.15045499999999}},{"type":"Feature","geometry":{"type":"Point","coordinates":[-123.15037536621094,49.254501342773438,0]},"properties":{"DATE_PLANTED":"20190602","CULTIVAR_NAME":" ","LATITUDE":49.254503,"TREE_ID":20422,"SPECIES_NAME":"HIPPOCASTANUM","COMMON_NAME":"COMMON HORSECHESTNUT","DIAMETER":33,"GENUS_NAME":"AESCULUS","LONGITUDE":-123.15037700000001}},{"type":"Feature","geometry":{"type":"Point","coordinates":[-123.15077209472656,49.254840850830078,0]},"properties":{"DATE_PLANTED":"20190602","CULTIVAR_NAME":" ","LATITUDE":49.254838999999997,"TREE_ID":20423,"SPECIES_NAME":"PUMILA","COMMON_NAME":"SIBERIAN ELM","DIAMETER":30,"GENUS_NAME":"ULMUS","LONGITUDE":-123.150774}},{"type":"Feature","geometry":{"type":"Point","coordinates":[-123.15077972412109,49.254642486572266,0]},"properties":{"DATE_PLANTED":"20190602","CULTIVAR_NAME":" ","LATITUDE":49.254643999999999,"TREE_ID":20425,"SPECIES_NAME":"RUBRUM","COMMON_NAME":"RED MAPLE","DIAMETER":22,"GENUS_NAME":"ACER","LONGITUDE":-123.150778}},{"type":"Feature","geometry":{"type":"Point","coordinates":[-123.15133666992188,49.254417419433594,0]},"properties":{"DATE_PLANTED":"20190602","CULTIVAR_NAME":"CRIMSON KING","LATITUDE":49.254416999999997,"TREE_ID":20427,"SPECIES_NAME":"PLATANOIDES","COMMON_NAME":"CRIMSON KING NORWAY MAPLE","DIAMETER":15,"GENUS_NAME":"ACER","LONGITUDE":-123.151337}},{"type":"Feature","geometry":{"type":"Point","coordinates":[-123.15128326416016,49.254520416259766,0]},"properties":{"DATE_PLANTED":"20190602","CULTIVAR_NAME":" ","LATITUDE":49.254519000000002,"TREE_ID":20431,"SPECIES_NAME":"AMERICANA","COMMON_NAME":"AMERICAN ELM","DIAMETER":47,"GENUS_NAME":"ULMUS","LONGITUDE":-123.15128300000001}},{"type":"Feature","geometry":{"type":"Point","coordinates":[-123.1337890625,49.248298645019531,0]},"properties":{"DATE_PLANTED":"20190602","CULTIVAR_NAME":" ","LATITUDE":49.2483,"TREE_ID":26939,"SPECIES_NAME":"PLATANOIDES","COMMON_NAME":"NORWAY MAPLE","DIAMETER":21,"GENUS_NAME":"ACER","LONGITUDE":-123.13379}},{"type":"Feature","geometry":{"type":"Point","coordinates":[-123.13370513916016,49.248298645019531,0]},"properties":{"DATE_PLANTED":"20190602","CULTIVAR_NAME":" ","LATITUDE":49.2483,"TREE_ID":26940,"SPECIES_NAME":"PLATANOIDES","COMMON_NAME":"NORWAY MAPLE","DIAMETER":22,"GENUS_NAME":"ACER","LONGITUDE":-123.133707}},{"type":"Feature","geometry":{"type":"Point","coordinates":[-123.13217163085938,49.248271942138672,0]},"properties":{"DATE_PLANTED":"20190602","CULTIVAR_NAME":"ATROPURPUREUM","LATITUDE":49.248272,"TREE_ID":26926,"SPECIES_NAME":"CERASIFERA","COMMON_NAME":"PISSARD PLUM","DIAMETER":20,"GENUS_NAME":"PRUNUS","LONGITUDE":-123.132171}},{"type":"Feature","geometry":{"type":"Point","coordinates":[-123.13298797607422,49.248287200927734,0]},"properties":{"DATE_PLANTED":"20050118","CULTIVAR_NAME":"AUTUMN APPLAUSE","LATITUDE":49.248289,"TREE_ID":26927,"SPECIES_NAME":"AMERICANA","COMMON_NAME":"AUTUMN APPLAUSE ASH","DIAMETER":4,"GENUS_NAME":"FRAXINUS","LONGITUDE":-123.132986}},{"type":"Feature","geometry":{"type":"Point","coordinates":[-123.13243103027344,49.248184204101562,0]},"properties":{"DATE_PLANTED":"20190602","CULTIVAR_NAME":" ","LATITUDE":49.248182999999997,"TREE_ID":26928,"SPECIES_NAME":"AMERICANA","COMMON_NAME":"AMERICAN ELM","DIAMETER":18,"GENUS_NAME":"ULMUS","LONGITUDE":-123.13243300000001}},{"type":"Feature","geometry":{"type":"Point","coordinates":[-123.13265991210938,49.248279571533203,0]},"properties":{"DATE_PLANTED":"20190602","CULTIVAR_NAME":" ","LATITUDE":49.248280999999999,"TREE_ID":26929,"SPECIES_NAME":"PLATANOIDES","COMMON_NAME":"NORWAY MAPLE","DIAMETER":21,"GENUS_NAME":"ACER","LONGITUDE":-123.13265699999999}},{"type":"Feature","geometry":{"type":"Point","coordinates":[-123.13275146484375,49.248188018798828,0]},"properties":{"DATE_PLANTED":"20190602","CULTIVAR_NAME":" ","LATITUDE":49.248189000000004,"TREE_ID":26930,"SPECIES_NAME":"AMERICANA","COMMON_NAME":"AMERICAN ELM","DIAMETER":19,"GENUS_NAME":"ULMUS","LONGITUDE":-123.13275299999999}},{"type":"Feature","geometry":{"type":"Point","coordinates":[-123.13291931152344,49.248191833496094,0]},"properties":{"DATE_PLANTED":"20190602","CULTIVAR_NAME":" ","LATITUDE":49.248192000000003,"TREE_ID":26932,"SPECIES_NAME":"AMERICANA","COMMON_NAME":"AMERICAN ELM","DIAMETER":33,"GENUS_NAME":"ULMUS","LONGITUDE":-123.132921}},{"type":"Feature","geometry":{"type":"Point","coordinates":[-123.13311767578125,49.248195648193359,0]},"properties":{"DATE_PLANTED":"20190602","CULTIVAR_NAME":" ","LATITUDE":49.248193999999998,"TREE_ID":26933,"SPECIES_NAME":"PLATANOIDES","COMMON_NAME":"NORWAY MAPLE","DIAMETER":30,"GENUS_NAME":"ACER","LONGITUDE":-123.13311400000001}},{"type":"Feature","geometry":{"type":"Point","coordinates":[-123.13333892822266,49.248291015625,0]},"properties":{"DATE_PLANTED":"20190602","CULTIVAR_NAME":" ","LATITUDE":49.248291999999999,"TREE_ID":26935,"SPECIES_NAME":"PLATANOIDES","COMMON_NAME":"NORWAY MAPLE","DIAMETER":33,"GENUS_NAME":"ACER","LONGITUDE":-123.133342}},{"type":"Feature","geometry":{"type":"Point","coordinates":[-123.13352203369141,49.248294830322266,0]},"properties":{"DATE_PLANTED":"20190602","CULTIVAR_NAME":" ","LATITUDE":49.248294000000001,"TREE_ID":26936,"SPECIES_NAME":"PLATANOIDES","COMMON_NAME":"NORWAY MAPLE","DIAMETER":32,"GENUS_NAME":"ACER","LONGITUDE":-123.13352399999999}},{"type":"Feature","geometry":{"type":"Point","coordinates":[-123.14134979248047,49.2484130859375,0]},"properties":{"DATE_PLANTED":"20190602","CULTIVAR_NAME":" ","LATITUDE":49.248413999999997,"TREE_ID":27000,"SPECIES_NAME":"AMERICANA","COMMON_NAME":"AMERICAN ELM","DIAMETER":30,"GENUS_NAME":"ULMUS","LONGITUDE":-123.141347}},{"type":"Feature","geometry":{"type":"Point","coordinates":[-123.14104461669922,49.248409271240234,0]},"properties":{"DATE_PLANTED":"20190602","CULTIVAR_NAME":" ","LATITUDE":49.248407999999998,"TREE_ID":27002,"SPECIES_NAME":"AMERICANA","COMMON_NAME":"AMERICAN ELM","DIAMETER":22,"GENUS_NAME":"ULMUS","LONGITUDE":-123.141046}},{"type":"Feature","geometry":{"type":"Point","coordinates":[-123.14090728759766,49.248409271240234,0]},"properties":{"DATE_PLANTED":"20190602","CULTIVAR_NAME":" ","LATITUDE":49.248407999999998,"TREE_ID":27003,"SPECIES_NAME":"AMERICANA","COMMON_NAME":"AMERICAN ELM","DIAMETER":19,"GENUS_NAME":"ULMUS","LONGITUDE":-123.14090400000001}},{"type":"Feature","geometry":{"type":"Point","coordinates":[-123.14060974121094,49.248401641845703,0]},"properties":{"DATE_PLANTED":"20190602","CULTIVAR_NAME":" ","LATITUDE":49.248403000000003,"TREE_ID":27005,"SPECIES_NAME":"AMERICANA","COMMON_NAME":"AMERICAN ELM","DIAMETER":22,"GENUS_NAME":"ULMUS","LONGITUDE":-123.140609}},{"type":"Feature","geometry":{"type":"Point","coordinates":[-123.14053344726562,49.248401641845703,0]},"properties":{"DATE_PLANTED":"20190602","CULTIVAR_NAME":" ","LATITUDE":49.248399999999997,"TREE_ID":27008,"SPECIES_NAME":"AMERICANA","COMMON_NAME":"AMERICAN ELM","DIAMETER":24,"GENUS_NAME":"ULMUS","LONGITUDE":-123.14053699999999}},{"type":"Feature","geometry":{"type":"Point","coordinates":[-123.13404846191406,49.248210906982422,0]},"properties":{"DATE_PLANTED":"20190602","CULTIVAR_NAME":" ","LATITUDE":49.248210999999998,"TREE_ID":26946,"SPECIES_NAME":"PLATANOIDES","COMMON_NAME":"NORWAY MAPLE","DIAMETER":31,"GENUS_NAME":"ACER","LONGITUDE":-123.134047}},{"type":"Feature","geometry":{"type":"Point","coordinates":[-123.13417816162109,49.248210906982422,0]},"properties":{"DATE_PLANTED":"20190602","CULTIVAR_NAME":" ","LATITUDE":49.248210999999998,"TREE_ID":26947,"SPECIES_NAME":"HIPPOCASTANUM","COMMON_NAME":"COMMON HORSECHESTNUT","DIAMETER":36,"GENUS_NAME":"AESCULUS","LONGITUDE":-123.13418}},{"type":"Feature","geometry":{"type":"Point","coordinates":[-123.13433074951172,49.248157501220703,0]},"properties":{"DATE_PLANTED":"20190602","CULTIVAR_NAME":" ","LATITUDE":49.248156000000002,"TREE_ID":26948,"SPECIES_NAME":"PLATANOIDES","COMMON_NAME":"NORWAY MAPLE","DIAMETER":26,"GENUS_NAME":"ACER","LONGITUDE":-123.134331}},{"type":"Feature","geometry":{"type":"Point","coordinates":[-123.13433074951172,49.247936248779297,0]},"properties":{"DATE_PLANTED":"20190602","CULTIVAR_NAME":" ","LATITUDE":49.247936000000003,"TREE_ID":26950,"SPECIES_NAME":"PLATANOIDES","COMMON_NAME":"NORWAY MAPLE","DIAMETER":24,"GENUS_NAME":"ACER","LONGITUDE":-123.134334}},{"type":"Feature","geometry":{"type":"Point","coordinates":[-123.13433837890625,49.247879028320312,0]},"properties":{"DATE_PLANTED":"20190602","CULTIVAR_NAME":" ","LATITUDE":49.247878,"TREE_ID":26951,"SPECIES_NAME":"RUBRUM","COMMON_NAME":"RED MAPLE","DIAMETER":18,"GENUS_NAME":"ACER","LONGITUDE":-123.134338}},{"type":"Feature","geometry":{"type":"Point","coordinates":[-123.13469696044922,49.248313903808594,0]},"properties":{"DATE_PLANTED":"20190602","CULTIVAR_NAME":" ","LATITUDE":49.248314000000001,"TREE_ID":26952,"SPECIES_NAME":"AMERICANA","COMMON_NAME":"AMERICAN ELM","DIAMETER":34,"GENUS_NAME":"ULMUS","LONGITUDE":-123.13469600000001}},{"type":"Feature","geometry":{"type":"Point","coordinates":[-123.13455963134766,49.248313903808594,0]},"properties":{"DATE_PLANTED":"20190602","CULTIVAR_NAME":" ","LATITUDE":49.248314000000001,"TREE_ID":26953,"SPECIES_NAME":"AMERICANA","COMMON_NAME":"AMERICAN ELM","DIAMETER":15,"GENUS_NAME":"ULMUS","LONGITUDE":-123.134558}},{"type":"Feature","geometry":{"type":"Point","coordinates":[-123.13488006591797,49.248218536376953,0]},"properties":{"DATE_PLANTED":"20190602","CULTIVAR_NAME":" ","LATITUDE":49.248218999999999,"TREE_ID":26955,"SPECIES_NAME":"AMERICANA","COMMON_NAME":"AMERICAN ELM","DIAMETER":26,"GENUS_NAME":"ULMUS","LONGITUDE":-123.13488099999999}},{"type":"Feature","geometry":{"type":"Point","coordinates":[-123.13497924804688,49.248317718505859,0]},"properties":{"DATE_PLANTED":"20190602","CULTIVAR_NAME":" ","LATITUDE":49.248319000000002,"TREE_ID":26956,"SPECIES_NAME":"AMERICANA","COMMON_NAME":"AMERICAN ELM","DIAMETER":34.25,"GENUS_NAME":"ULMUS","LONGITUDE":-123.134981}},{"type":"Feature","geometry":{"type":"Point","coordinates":[-123.13483428955078,49.248313903808594,0]},"properties":{"DATE_PLANTED":"20190602","CULTIVAR_NAME":" ","LATITUDE":49.248314000000001,"TREE_ID":26957,"SPECIES_NAME":"AMERICANA","COMMON_NAME":"AMERICAN ELM","DIAMETER":21.5,"GENUS_NAME":"ULMUS","LONGITUDE":-123.134833}},{"type":"Feature","geometry":{"type":"Point","coordinates":[-123.13501739501953,49.248222351074219,0]},"properties":{"DATE_PLANTED":"20190602","CULTIVAR_NAME":" ","LATITUDE":49.248221999999998,"TREE_ID":26958,"SPECIES_NAME":"AMERICANA","COMMON_NAME":"AMERICAN ELM","DIAMETER":27,"GENUS_NAME":"ULMUS","LONGITUDE":-123.135019}},{"type":"Feature","geometry":{"type":"Point","coordinates":[-123.13526916503906,49.248325347900391,0]},"properties":{"DATE_PLANTED":"20190602","CULTIVAR_NAME":" ","LATITUDE":49.248325000000001,"TREE_ID":26959,"SPECIES_NAME":"AMERICANA","COMMON_NAME":"AMERICAN ELM","DIAMETER":36,"GENUS_NAME":"ULMUS","LONGITUDE":-123.13526899999999}},{"type":"Feature","geometry":{"type":"Point","coordinates":[-123.13514709472656,49.248226165771484,0]},"properties":{"DATE_PLANTED":"20190602","CULTIVAR_NAME":" ","LATITUDE":49.248224999999998,"TREE_ID":26960,"SPECIES_NAME":"AMERICANA","COMMON_NAME":"AMERICAN ELM","DIAMETER":30,"GENUS_NAME":"ULMUS","LONGITUDE":-123.13515}},{"type":"Feature","geometry":{"type":"Point","coordinates":[-123.13385772705078,49.248207092285156,0]},"properties":{"DATE_PLANTED":"20190602","CULTIVAR_NAME":"IVORY SILK","LATITUDE":49.248207999999998,"TREE_ID":26138,"SPECIES_NAME":"RETICULATA","COMMON_NAME":"TREE LILAC","DIAMETER":3,"GENUS_NAME":"SYRINGA","LONGITUDE":-123.13386}},{"type":"Feature","geometry":{"type":"Point","coordinates":[-123.13530731201172,49.248226165771484,0]},"properties":{"DATE_PLANTED":"20190602","CULTIVAR_NAME":" ","LATITUDE":49.248227999999997,"TREE_ID":26961,"SPECIES_NAME":"AMERICANA","COMMON_NAME":"AMERICAN ELM","DIAMETER":24,"GENUS_NAME":"ULMUS","LONGITUDE":-123.135304}},{"type":"Feature","geometry":{"type":"Point","coordinates":[-123.13544464111328,49.248226165771484,0]},"properties":{"DATE_PLANTED":"20190602","CULTIVAR_NAME":" ","LATITUDE":49.248227999999997,"TREE_ID":26962,"SPECIES_NAME":"AMERICANA","COMMON_NAME":"AMERICAN ELM","DIAMETER":30,"GENUS_NAME":"ULMUS","LONGITUDE":-123.135443}},{"type":"Feature","geometry":{"type":"Point","coordinates":[-123.13575744628906,49.248237609863281,0]},"properties":{"DATE_PLANTED":"20190602","CULTIVAR_NAME":" ","LATITUDE":49.248235999999999,"TREE_ID":26965,"SPECIES_NAME":"AMERICANA","COMMON_NAME":"AMERICAN ELM","DIAMETER":26,"GENUS_NAME":"ULMUS","LONGITUDE":-123.135755}},{"type":"Feature","geometry":{"type":"Point","coordinates":[-123.13588714599609,49.248237609863281,0]},"properties":{"DATE_PLANTED":"20190602","CULTIVAR_NAME":" ","LATITUDE":49.248238999999998,"TREE_ID":26966,"SPECIES_NAME":"AMERICANA","COMMON_NAME":"AMERICAN ELM","DIAMETER":18,"GENUS_NAME":"ULMUS","LONGITUDE":-123.135884}},{"type":"Feature","geometry":{"type":"Point","coordinates":[-123.13625335693359,49.248332977294922,0]},"properties":{"DATE_PLANTED":"20190602","CULTIVAR_NAME":" ","LATITUDE":49.248333000000002,"TREE_ID":26967,"SPECIES_NAME":"AMERICANA","COMMON_NAME":"AMERICAN ELM","DIAMETER":30,"GENUS_NAME":"ULMUS","LONGITUDE":-123.136257}},{"type":"Feature","geometry":{"type":"Point","coordinates":[-123.13609313964844,49.248336791992188,0]},"properties":{"DATE_PLANTED":"20190602","CULTIVAR_NAME":" ","LATITUDE":49.248336000000002,"TREE_ID":26968,"SPECIES_NAME":"AMERICANA","COMMON_NAME":"AMERICAN ELM","DIAMETER":25,"GENUS_NAME":"ULMUS","LONGITUDE":-123.136094}},{"type":"Feature","geometry":{"type":"Point","coordinates":[-123.13601684570312,49.248245239257812,0]},"properties":{"DATE_PLANTED":"20190602","CULTIVAR_NAME":" ","LATITUDE":49.248244,"TREE_ID":26969,"SPECIES_NAME":"AMERICANA","COMMON_NAME":"AMERICAN ELM","DIAMETER":30,"GENUS_NAME":"ULMUS","LONGITUDE":-123.136017}},{"type":"Feature","geometry":{"type":"Point","coordinates":[-123.13614654541016,49.248241424560547,0]},"properties":{"DATE_PLANTED":"20190602","CULTIVAR_NAME":" ","LATITUDE":49.248241999999998,"TREE_ID":26970,"SPECIES_NAME":"AMERICANA","COMMON_NAME":"AMERICAN ELM","DIAMETER":25,"GENUS_NAME":"ULMUS","LONGITUDE":-123.136143}},{"type":"Feature","geometry":{"type":"Point","coordinates":[-123.137451171875,49.248355865478516,0]},"properties":{"DATE_PLANTED":"20190602","CULTIVAR_NAME":" ","LATITUDE":49.248356000000001,"TREE_ID":26971,"SPECIES_NAME":"AMERICANA","COMMON_NAME":"AMERICAN ELM","DIAMETER":25,"GENUS_NAME":"ULMUS","LONGITUDE":-123.13744800000001}},{"type":"Feature","geometry":{"type":"Point","coordinates":[-123.13731384277344,49.248355865478516,0]},"properties":{"DATE_PLANTED":"20190602","CULTIVAR_NAME":" ","LATITUDE":49.248356000000001,"TREE_ID":26972,"SPECIES_NAME":"AMERICANA","COMMON_NAME":"AMERICAN ELM","DIAMETER":25,"GENUS_NAME":"ULMUS","LONGITUDE":-123.13731199999999}},{"type":"Feature","geometry":{"type":"Point","coordinates":[-123.13721466064453,49.248256683349609,0]},"properties":{"DATE_PLANTED":"20190602","CULTIVAR_NAME":" ","LATITUDE":49.248255999999998,"TREE_ID":26973,"SPECIES_NAME":"AMERICANA","COMMON_NAME":"AMERICAN ELM","DIAMETER":20,"GENUS_NAME":"ULMUS","LONGITUDE":-123.137218}},{"type":"Feature","geometry":{"type":"Point","coordinates":[-123.13736724853516,49.248260498046875,0]},"properties":{"DATE_PLANTED":"20190602","CULTIVAR_NAME":" ","LATITUDE":49.248260999999999,"TREE_ID":26974,"SPECIES_NAME":"AMERICANA","COMMON_NAME":"AMERICAN ELM","DIAMETER":26,"GENUS_NAME":"ULMUS","LONGITUDE":-123.137368}},{"type":"Feature","geometry":{"type":"Point","coordinates":[-123.13748931884766,49.248264312744141,0]},"properties":{"DATE_PLANTED":"20190602","CULTIVAR_NAME":" ","LATITUDE":49.248263999999999,"TREE_ID":26976,"SPECIES_NAME":"AMERICANA","COMMON_NAME":"AMERICAN ELM","DIAMETER":30,"GENUS_NAME":"ULMUS","LONGITUDE":-123.13749300000001}},{"type":"Feature","geometry":{"type":"Point","coordinates":[-123.13768005371094,49.248268127441406,0]},"properties":{"DATE_PLANTED":"20190602","CULTIVAR_NAME":" ","LATITUDE":49.248269000000001,"TREE_ID":26977,"SPECIES_NAME":"AMERICANA","COMMON_NAME":"AMERICAN ELM","DIAMETER":30,"GENUS_NAME":"ULMUS","LONGITUDE":-123.13767799999999}},{"type":"Feature","geometry":{"type":"Point","coordinates":[-123.13779449462891,49.248268127441406,0]},"properties":{"DATE_PLANTED":"20190602","CULTIVAR_NAME":" ","LATITUDE":49.248269000000001,"TREE_ID":26978,"SPECIES_NAME":"AMERICANA","COMMON_NAME":"AMERICAN ELM","DIAMETER":30,"GENUS_NAME":"ULMUS","LONGITUDE":-123.13779100000001}},{"type":"Feature","geometry":{"type":"Point","coordinates":[-123.13801574707031,49.248363494873047,0]},"properties":{"DATE_PLANTED":"20190602","CULTIVAR_NAME":" ","LATITUDE":49.248364000000002,"TREE_ID":26979,"SPECIES_NAME":"AMERICANA","COMMON_NAME":"AMERICAN ELM","DIAMETER":36.75,"GENUS_NAME":"ULMUS","LONGITUDE":-123.138013}},{"type":"Feature","geometry":{"type":"Point","coordinates":[-123.13785552978516,49.248359680175781,0]},"properties":{"DATE_PLANTED":"20190602","CULTIVAR_NAME":" ","LATITUDE":49.248361000000003,"TREE_ID":26980,"SPECIES_NAME":"AMERICANA","COMMON_NAME":"AMERICAN ELM","DIAMETER":26,"GENUS_NAME":"ULMUS","LONGITUDE":-123.13785799999999}},{"type":"Feature","geometry":{"type":"Point","coordinates":[-123.13835906982422,49.248279571533203,0]},"properties":{"DATE_PLANTED":"20190602","CULTIVAR_NAME":" ","LATITUDE":49.248280999999999,"TREE_ID":26982,"SPECIES_NAME":"AMERICANA","COMMON_NAME":"AMERICAN ELM","DIAMETER":32.5,"GENUS_NAME":"ULMUS","LONGITUDE":-123.138362}},{"type":"Feature","geometry":{"type":"Point","coordinates":[-123.13873291015625,49.248374938964844,0]},"properties":{"DATE_PLANTED":"20190602","CULTIVAR_NAME":" ","LATITUDE":49.248375000000003,"TREE_ID":26984,"SPECIES_NAME":"AMERICANA","COMMON_NAME":"AMERICAN ELM","DIAMETER":24,"GENUS_NAME":"ULMUS","LONGITUDE":-123.138733}},{"type":"Feature","geometry":{"type":"Point","coordinates":[-123.13861083984375,49.248371124267578,0]},"properties":{"DATE_PLANTED":"20190602","CULTIVAR_NAME":" ","LATITUDE":49.248372000000003,"TREE_ID":26985,"SPECIES_NAME":"AMERICANA","COMMON_NAME":"AMERICAN ELM","DIAMETER":24,"GENUS_NAME":"ULMUS","LONGITUDE":-123.138611}},{"type":"Feature","geometry":{"type":"Point","coordinates":[-123.13994598388672,49.248298645019531,0]},"properties":{"DATE_PLANTED":"20190602","CULTIVAR_NAME":" ","LATITUDE":49.2483,"TREE_ID":26986,"SPECIES_NAME":"AMERICANA","COMMON_NAME":"AMERICAN ELM","DIAMETER":18,"GENUS_NAME":"ULMUS","LONGITUDE":-123.13994700000001}},{"type":"Feature","geometry":{"type":"Point","coordinates":[-123.14016723632812,49.248302459716797,0]},"properties":{"DATE_PLANTED":"20190602","CULTIVAR_NAME":" ","LATITUDE":49.248303,"TREE_ID":26987,"SPECIES_NAME":"AMERICANA","COMMON_NAME":"AMERICAN ELM","DIAMETER":16,"GENUS_NAME":"ULMUS","LONGITUDE":-123.140171}},{"type":"Feature","geometry":{"type":"Point","coordinates":[-123.14028930664062,49.248306274414062,0]},"properties":{"DATE_PLANTED":"20190602","CULTIVAR_NAME":" ","LATITUDE":49.248305999999999,"TREE_ID":26988,"SPECIES_NAME":"AMERICANA","COMMON_NAME":"AMERICAN ELM","DIAMETER":15,"GENUS_NAME":"ULMUS","LONGITUDE":-123.140288}},{"type":"Feature","geometry":{"type":"Point","coordinates":[-123.14042663574219,49.248306274414062,0]},"properties":{"DATE_PLANTED":"20190602","CULTIVAR_NAME":"PAULII","LATITUDE":49.248308000000002,"TREE_ID":26990,"SPECIES_NAME":"OXYACANTHA","COMMON_NAME":"PAUL'S SCARLET HAWTHORN","DIAMETER":7.5,"GENUS_NAME":"CRATAEGUS","LONGITUDE":-123.14042600000001}},{"type":"Feature","geometry":{"type":"Point","coordinates":[-123.14048004150391,49.248401641845703,0]},"properties":{"DATE_PLANTED":"20190602","CULTIVAR_NAME":" ","LATITUDE":49.248399999999997,"TREE_ID":27009,"SPECIES_NAME":"AMERICANA","COMMON_NAME":"AMERICAN ELM","DIAMETER":26,"GENUS_NAME":"ULMUS","LONGITUDE":-123.140483}},{"type":"Feature","geometry":{"type":"Point","coordinates":[-123.14039611816406,49.248401641845703,0]},"properties":{"DATE_PLANTED":"20190602","CULTIVAR_NAME":" ","LATITUDE":49.248403000000003,"TREE_ID":27010,"SPECIES_NAME":"AMERICANA","COMMON_NAME":"AMERICAN ELM","DIAMETER":32,"GENUS_NAME":"ULMUS","LONGITUDE":-123.140393}},{"type":"Feature","geometry":{"type":"Point","coordinates":[-123.14018249511719,49.248401641845703,0]},"properties":{"DATE_PLANTED":"20190602","CULTIVAR_NAME":" ","LATITUDE":49.248399999999997,"TREE_ID":27011,"SPECIES_NAME":"AMERICANA","COMMON_NAME":"AMERICAN ELM","DIAMETER":22,"GENUS_NAME":"ULMUS","LONGITUDE":-123.140184}},{"type":"Feature","geometry":{"type":"Point","coordinates":[-123.14009857177734,49.248394012451172,0]},"properties":{"DATE_PLANTED":"20190602","CULTIVAR_NAME":" ","LATITUDE":49.248393999999998,"TREE_ID":27012,"SPECIES_NAME":"AMERICANA","COMMON_NAME":"AMERICAN ELM","DIAMETER":27,"GENUS_NAME":"ULMUS","LONGITUDE":-123.140097}},{"type":"Feature","geometry":{"type":"Point","coordinates":[-123.14002227783203,49.248390197753906,0]},"properties":{"DATE_PLANTED":"20190602","CULTIVAR_NAME":" ","LATITUDE":49.248392000000003,"TREE_ID":27013,"SPECIES_NAME":"AMERICANA","COMMON_NAME":"AMERICAN ELM","DIAMETER":29,"GENUS_NAME":"ULMUS","LONGITUDE":-123.14002499999999}},{"type":"Feature","geometry":{"type":"Point","coordinates":[-123.13045501708984,49.242576599121094,0]},"properties":{"DATE_PLANTED":"20190602","CULTIVAR_NAME":" ","LATITUDE":49.242578000000002,"TREE_ID":31284,"SPECIES_NAME":"FLORIBUNDA","COMMON_NAME":"JAPANESE FLOWERING CRABAPPLE","DIAMETER":10.5,"GENUS_NAME":"MALUS","LONGITUDE":-123.130454}},{"type":"Feature","geometry":{"type":"Point","coordinates":[-123.13014221191406,49.24273681640625,0]},"properties":{"DATE_PLANTED":"20000313","CULTIVAR_NAME":"THUNDERCLOUD","LATITUDE":49.242736000000001,"TREE_ID":31287,"SPECIES_NAME":"CERASIFERA","COMMON_NAME":"THUNDERCLOUD PURPLE PLUM","DIAMETER":3,"GENUS_NAME":"PRUNUS","LONGITUDE":-123.13014}},{"type":"Feature","geometry":{"type":"Point","coordinates":[-123.14095306396484,49.248317718505859,0]},"properties":{"DATE_PLANTED":"20190602","CULTIVAR_NAME":" ","LATITUDE":49.248317,"TREE_ID":26992,"SPECIES_NAME":"AMERICANA","COMMON_NAME":"AMERICAN ELM","DIAMETER":29,"GENUS_NAME":"ULMUS","LONGITUDE":-123.140956}},{"type":"Feature","geometry":{"type":"Point","coordinates":[-123.14122009277344,49.248317718505859,0]},"properties":{"DATE_PLANTED":"20190602","CULTIVAR_NAME":" ","LATITUDE":49.248319000000002,"TREE_ID":26994,"SPECIES_NAME":"AMERICANA","COMMON_NAME":"AMERICAN ELM","DIAMETER":24,"GENUS_NAME":"ULMUS","LONGITUDE":-123.141223}},{"type":"Feature","geometry":{"type":"Point","coordinates":[-123.14145660400391,49.248256683349609,0]},"properties":{"DATE_PLANTED":"20190602","CULTIVAR_NAME":" ","LATITUDE":49.248255999999998,"TREE_ID":26996,"SPECIES_NAME":"PLATANOIDES","COMMON_NAME":"NORWAY MAPLE","DIAMETER":22,"GENUS_NAME":"ACER","LONGITUDE":-123.141453}},{"type":"Feature","geometry":{"type":"Point","coordinates":[-123.14145660400391,49.248165130615234,0]},"properties":{"DATE_PLANTED":"20190602","CULTIVAR_NAME":" ","LATITUDE":49.248167000000002,"TREE_ID":26997,"SPECIES_NAME":"PLATANOIDES","COMMON_NAME":"NORWAY MAPLE","DIAMETER":22,"GENUS_NAME":"ACER","LONGITUDE":-123.141457}},{"type":"Feature","geometry":{"type":"Point","coordinates":[-123.14145660400391,49.248081207275391,0]},"properties":{"DATE_PLANTED":"20190602","CULTIVAR_NAME":" ","LATITUDE":49.248083000000001,"TREE_ID":26998,"SPECIES_NAME":"PLATANOIDES","COMMON_NAME":"NORWAY MAPLE","DIAMETER":27.799999237060547,"GENUS_NAME":"ACER","LONGITUDE":-123.14146}},{"type":"Feature","geometry":{"type":"Point","coordinates":[-123.14473724365234,49.248992919921875,0]},"properties":{"DATE_PLANTED":"20190602","CULTIVAR_NAME":" ","LATITUDE":49.248994000000003,"TREE_ID":26368,"SPECIES_NAME":"AMERICANA","COMMON_NAME":"AMERICAN ELM","DIAMETER":18,"GENUS_NAME":"ULMUS","LONGITUDE":-123.144741}},{"type":"Feature","geometry":{"type":"Point","coordinates":[-123.14473724365234,49.249057769775391,0]},"properties":{"DATE_PLANTED":"20190602","CULTIVAR_NAME":" ","LATITUDE":49.249057999999998,"TREE_ID":26369,"SPECIES_NAME":"AMERICANA","COMMON_NAME":"AMERICAN ELM","DIAMETER":12,"GENUS_NAME":"ULMUS","LONGITUDE":-123.144741}},{"type":"Feature","geometry":{"type":"Point","coordinates":[-123.14473724365234,49.249156951904297,0]},"properties":{"DATE_PLANTED":"20190602","CULTIVAR_NAME":" ","LATITUDE":49.249158000000001,"TREE_ID":26370,"SPECIES_NAME":"AMERICANA","COMMON_NAME":"AMERICAN ELM","DIAMETER":18,"GENUS_NAME":"ULMUS","LONGITUDE":-123.144734}},{"type":"Feature","geometry":{"type":"Point","coordinates":[-123.14472961425781,49.249309539794922,0]},"properties":{"DATE_PLANTED":"20190602","CULTIVAR_NAME":" ","LATITUDE":49.249307999999999,"TREE_ID":26371,"SPECIES_NAME":"HIPPOCASTANUM","COMMON_NAME":"COMMON HORSECHESTNUT","DIAMETER":18,"GENUS_NAME":"AESCULUS","LONGITUDE":-123.144727}},{"type":"Feature","geometry":{"type":"Point","coordinates":[-123.14640045166016,49.249382019042969,0]},"properties":{"DATE_PLANTED":"20190602","CULTIVAR_NAME":" ","LATITUDE":49.249383000000002,"TREE_ID":26373,"SPECIES_NAME":"PHAENOPYRUM","COMMON_NAME":"WASHINGTON HAWTHORN","DIAMETER":3,"GENUS_NAME":"CRATAEGUS","LONGITUDE":-123.14640300000001}},{"type":"Feature","geometry":{"type":"Point","coordinates":[-123.14620208740234,49.248996734619141,0]},"properties":{"DATE_PLANTED":"20190602","CULTIVAR_NAME":" ","LATITUDE":49.248997000000003,"TREE_ID":26376,"SPECIES_NAME":"MACROPHYLLUM","COMMON_NAME":"BIGLEAF MAPLE","DIAMETER":47,"GENUS_NAME":"ACER","LONGITUDE":-123.146201}},{"type":"Feature","geometry":{"type":"Point","coordinates":[-123.14619445800781,49.249107360839844,0]},"properties":{"DATE_PLANTED":"20190602","CULTIVAR_NAME":" ","LATITUDE":49.249105999999998,"TREE_ID":26377,"SPECIES_NAME":"MACROPHYLLUM","COMMON_NAME":"BIGLEAF MAPLE","DIAMETER":41,"GENUS_NAME":"ACER","LONGITUDE":-123.14619399999999}},{"type":"Feature","geometry":{"type":"Point","coordinates":[-123.14618682861328,49.249340057373047,0]},"properties":{"DATE_PLANTED":"20190602","CULTIVAR_NAME":" ","LATITUDE":49.249338999999999,"TREE_ID":26378,"SPECIES_NAME":"PLATANOIDES","COMMON_NAME":"NORWAY MAPLE","DIAMETER":47,"GENUS_NAME":"ACER","LONGITUDE":-123.146188}},{"type":"Feature","geometry":{"type":"Point","coordinates":[-123.12837219238281,49.248210906982422,0]},"properties":{"DATE_PLANTED":"20190602","CULTIVAR_NAME":" ","LATITUDE":49.248210999999998,"TREE_ID":26892,"SPECIES_NAME":"AMERICANA","COMMON_NAME":"AMERICAN ELM","DIAMETER":44,"GENUS_NAME":"ULMUS","LONGITUDE":-123.12836900000001}},{"type":"Feature","geometry":{"type":"Point","coordinates":[-123.12841033935547,49.248119354248047,0]},"properties":{"DATE_PLANTED":"20190602","CULTIVAR_NAME":" ","LATITUDE":49.248119000000003,"TREE_ID":26893,"SPECIES_NAME":"AMERICANA","COMMON_NAME":"WHITE ASH","DIAMETER":9,"GENUS_NAME":"FRAXINUS","LONGITUDE":-123.12840799999999}},{"type":"Feature","geometry":{"type":"Point","coordinates":[-123.12873077392578,49.248218536376953,0]},"properties":{"DATE_PLANTED":"20190602","CULTIVAR_NAME":" ","LATITUDE":49.248216999999997,"TREE_ID":26894,"SPECIES_NAME":"AMERICANA","COMMON_NAME":"WHITE ASH","DIAMETER":8,"GENUS_NAME":"FRAXINUS","LONGITUDE":-123.128732}},{"type":"Feature","geometry":{"type":"Point","coordinates":[-123.12861633300781,49.248218536376953,0]},"properties":{"DATE_PLANTED":"20190602","CULTIVAR_NAME":" ","LATITUDE":49.248216999999997,"TREE_ID":26895,"SPECIES_NAME":"AMERICANA","COMMON_NAME":"AMERICAN ELM","DIAMETER":33,"GENUS_NAME":"ULMUS","LONGITUDE":-123.128618}},{"type":"Feature","geometry":{"type":"Point","coordinates":[-123.12882232666016,49.248123168945312,0]},"properties":{"DATE_PLANTED":"20190602","CULTIVAR_NAME":" ","LATITUDE":49.248125000000002,"TREE_ID":26896,"SPECIES_NAME":"AMERICANA","COMMON_NAME":"WHITE ASH","DIAMETER":10,"GENUS_NAME":"FRAXINUS","LONGITUDE":-123.12881899999999}},{"type":"Feature","geometry":{"type":"Point","coordinates":[-123.12858581542969,49.248119354248047,0]},"properties":{"DATE_PLANTED":"20190602","CULTIVAR_NAME":" ","LATITUDE":49.248119000000003,"TREE_ID":26897,"SPECIES_NAME":"AMERICANA","COMMON_NAME":"WHITE ASH","DIAMETER":11,"GENUS_NAME":"FRAXINUS","LONGITUDE":-123.128587}},{"type":"Feature","geometry":{"type":"Point","coordinates":[-123.12905883789062,49.248222351074219,0]},"properties":{"DATE_PLANTED":"20190602","CULTIVAR_NAME":" ","LATITUDE":49.248221999999998,"TREE_ID":26898,"SPECIES_NAME":"AMERICANA","COMMON_NAME":"WHITE ASH","DIAMETER":9.5,"GENUS_NAME":"FRAXINUS","LONGITUDE":-123.12906}},{"type":"Feature","geometry":{"type":"Point","coordinates":[-123.12889099121094,49.248218536376953,0]},"properties":{"DATE_PLANTED":"20190602","CULTIVAR_NAME":" ","LATITUDE":49.248218999999999,"TREE_ID":26899,"SPECIES_NAME":"AMERICANA","COMMON_NAME":"WHITE ASH","DIAMETER":9.75,"GENUS_NAME":"FRAXINUS","LONGITUDE":-123.12889199999999}},{"type":"Feature","geometry":{"type":"Point","coordinates":[-123.12904357910156,49.248130798339844,0]},"properties":{"DATE_PLANTED":"20190602","CULTIVAR_NAME":" ","LATITUDE":49.248131000000001,"TREE_ID":26900,"SPECIES_NAME":"AMERICANA","COMMON_NAME":"WHITE ASH","DIAMETER":8,"GENUS_NAME":"FRAXINUS","LONGITUDE":-123.129046}},{"type":"Feature","geometry":{"type":"Point","coordinates":[-123.13121032714844,49.248165130615234,0]},"properties":{"DATE_PLANTED":"20190602","CULTIVAR_NAME":"SHIROFUGEN","LATITUDE":49.248164000000003,"TREE_ID":26907,"SPECIES_NAME":"SERRULATA","COMMON_NAME":"SHIROFUGEN CHERRY","DIAMETER":24,"GENUS_NAME":"PRUNUS","LONGITUDE":-123.13121099999999}},{"type":"Feature","geometry":{"type":"Point","coordinates":[-123.13109588623047,49.248256683349609,0]},"properties":{"DATE_PLANTED":"20190602","CULTIVAR_NAME":"SHIROFUGEN","LATITUDE":49.248255999999998,"TREE_ID":26908,"SPECIES_NAME":"SERRULATA","COMMON_NAME":"SHIROFUGEN CHERRY","DIAMETER":15,"GENUS_NAME":"PRUNUS","LONGITUDE":-123.13109300000001}},{"type":"Feature","geometry":{"type":"Point","coordinates":[-123.13137817382812,49.248165130615234,0]},"properties":{"DATE_PLANTED":"20190602","CULTIVAR_NAME":"SHIROFUGEN","LATITUDE":49.248164000000003,"TREE_ID":26909,"SPECIES_NAME":"SERRULATA","COMMON_NAME":"SHIROFUGEN CHERRY","DIAMETER":26,"GENUS_NAME":"PRUNUS","LONGITUDE":-123.131377}},{"type":"Feature","geometry":{"type":"Point","coordinates":[-123.1314697265625,49.248260498046875,0]},"properties":{"DATE_PLANTED":"20190602","CULTIVAR_NAME":"SHIROFUGEN","LATITUDE":49.248260999999999,"TREE_ID":26912,"SPECIES_NAME":"SERRULATA","COMMON_NAME":"SHIROFUGEN CHERRY","DIAMETER":22,"GENUS_NAME":"PRUNUS","LONGITUDE":-123.131469}},{"type":"Feature","geometry":{"type":"Point","coordinates":[-123.13156890869141,49.248165130615234,0]},"properties":{"DATE_PLANTED":"20190602","CULTIVAR_NAME":"SHIROFUGEN","LATITUDE":49.248167000000002,"TREE_ID":26913,"SPECIES_NAME":"SERRULATA","COMMON_NAME":"SHIROFUGEN CHERRY","DIAMETER":25,"GENUS_NAME":"PRUNUS","LONGITUDE":-123.13156600000001}},{"type":"Feature","geometry":{"type":"Point","coordinates":[-123.14015960693359,49.246559143066406,0]},"properties":{"DATE_PLANTED":"20190602","CULTIVAR_NAME":" ","LATITUDE":49.246558,"TREE_ID":28718,"SPECIES_NAME":"AMERICANA","COMMON_NAME":"AMERICAN ELM","DIAMETER":37,"GENUS_NAME":"ULMUS","LONGITUDE":-123.14015999999999}},{"type":"Feature","geometry":{"type":"Point","coordinates":[-123.13999938964844,49.246559143066406,0]},"properties":{"DATE_PLANTED":"20190602","CULTIVAR_NAME":" ","LATITUDE":49.246558,"TREE_ID":28719,"SPECIES_NAME":"AMERICANA","COMMON_NAME":"AMERICAN ELM","DIAMETER":27,"GENUS_NAME":"ULMUS","LONGITUDE":-123.14000299999999}},{"type":"Feature","geometry":{"type":"Point","coordinates":[-123.14044189453125,49.246559143066406,0]},"properties":{"DATE_PLANTED":"20190602","CULTIVAR_NAME":" ","LATITUDE":49.246561,"TREE_ID":28720,"SPECIES_NAME":"AMERICANA","COMMON_NAME":"AMERICAN ELM","DIAMETER":19,"GENUS_NAME":"ULMUS","LONGITUDE":-123.140444}},{"type":"Feature","geometry":{"type":"Point","coordinates":[-123.14030456542969,49.246559143066406,0]},"properties":{"DATE_PLANTED":"20190602","CULTIVAR_NAME":" ","LATITUDE":49.246561,"TREE_ID":28721,"SPECIES_NAME":"AMERICANA","COMMON_NAME":"AMERICAN ELM","DIAMETER":23,"GENUS_NAME":"ULMUS","LONGITUDE":-123.140308}},{"type":"Feature","geometry":{"type":"Point","coordinates":[-123.14073181152344,49.246566772460938,0]},"properties":{"DATE_PLANTED":"20190602","CULTIVAR_NAME":" ","LATITUDE":49.246566999999999,"TREE_ID":28722,"SPECIES_NAME":"AMERICANA","COMMON_NAME":"AMERICAN ELM","DIAMETER":23,"GENUS_NAME":"ULMUS","LONGITUDE":-123.140728}},{"type":"Feature","geometry":{"type":"Point","coordinates":[-123.14100646972656,49.246566772460938,0]},"properties":{"DATE_PLANTED":"20190602","CULTIVAR_NAME":" ","LATITUDE":49.246566999999999,"TREE_ID":28724,"SPECIES_NAME":"AMERICANA","COMMON_NAME":"AMERICAN ELM","DIAMETER":28,"GENUS_NAME":"ULMUS","LONGITUDE":-123.14100500000001}},{"type":"Feature","geometry":{"type":"Point","coordinates":[-123.14165496826172,49.246730804443359,0]},"properties":{"DATE_PLANTED":"20190602","CULTIVAR_NAME":" ","LATITUDE":49.246730999999997,"TREE_ID":28729,"SPECIES_NAME":"PLATANOIDES","COMMON_NAME":"NORWAY MAPLE","DIAMETER":20,"GENUS_NAME":"ACER","LONGITUDE":-123.14165300000001}},{"type":"Feature","geometry":{"type":"Point","coordinates":[-123.14164733886719,49.246841430664062,0]},"properties":{"DATE_PLANTED":"20190602","CULTIVAR_NAME":" ","LATITUDE":49.246842000000001,"TREE_ID":28730,"SPECIES_NAME":"PLATANOIDES","COMMON_NAME":"NORWAY MAPLE","DIAMETER":24,"GENUS_NAME":"ACER","LONGITUDE":-123.14165}},{"type":"Feature","geometry":{"type":"Point","coordinates":[-123.14164733886719,49.246959686279297,0]},"properties":{"DATE_PLANTED":"20190602","CULTIVAR_NAME":" ","LATITUDE":49.246960999999999,"TREE_ID":28731,"SPECIES_NAME":"PLATANOIDES","COMMON_NAME":"NORWAY MAPLE","DIAMETER":18,"GENUS_NAME":"ACER","LONGITUDE":-123.141644}},{"type":"Feature","geometry":{"type":"Point","coordinates":[-123.14174652099609,49.246490478515625,0]},"properties":{"DATE_PLANTED":"20190602","CULTIVAR_NAME":" ","LATITUDE":49.246488999999997,"TREE_ID":28732,"SPECIES_NAME":"HIPPOCASTANUM","COMMON_NAME":"COMMON HORSECHESTNUT","DIAMETER":13,"GENUS_NAME":"AESCULUS","LONGITUDE":-123.141744}},{"type":"Feature","geometry":{"type":"Point","coordinates":[-123.141845703125,49.246490478515625,0]},"properties":{"DATE_PLANTED":"20190602","CULTIVAR_NAME":" ","LATITUDE":49.246488999999997,"TREE_ID":28733,"SPECIES_NAME":"HIPPOCASTANUM","COMMON_NAME":"COMMON HORSECHESTNUT","DIAMETER":9,"GENUS_NAME":"AESCULUS","LONGITUDE":-123.141848}},{"type":"Feature","geometry":{"type":"Point","coordinates":[-123.14197540283203,49.246490478515625,0]},"properties":{"DATE_PLANTED":"20190602","CULTIVAR_NAME":" ","LATITUDE":49.246492000000003,"TREE_ID":28734,"SPECIES_NAME":"ACERIFOLIA   X","COMMON_NAME":"LONDON PLANE TREE","DIAMETER":13.25,"GENUS_NAME":"PLATANUS","LONGITUDE":-123.14197900000001}},{"type":"Feature","geometry":{"type":"Point","coordinates":[-123.14167022705078,49.246273040771484,0]},"properties":{"DATE_PLANTED":"20190602","CULTIVAR_NAME":" ","LATITUDE":49.246271999999998,"TREE_ID":28737,"SPECIES_NAME":"HIPPOCASTANUM","COMMON_NAME":"COMMON HORSECHESTNUT","DIAMETER":14,"GENUS_NAME":"AESCULUS","LONGITUDE":-123.14167399999999}},{"type":"Feature","geometry":{"type":"Point","coordinates":[-123.14229583740234,49.246593475341797,0]},"properties":{"DATE_PLANTED":"20190602","CULTIVAR_NAME":" ","LATITUDE":49.246592,"TREE_ID":28738,"SPECIES_NAME":"ACERIFOLIA   X","COMMON_NAME":"LONDON PLANE TREE","DIAMETER":13,"GENUS_NAME":"PLATANUS","LONGITUDE":-123.142295}},{"type":"Feature","geometry":{"type":"Point","coordinates":[-123.14218902587891,49.246593475341797,0]},"properties":{"DATE_PLANTED":"20190602","CULTIVAR_NAME":" ","LATITUDE":49.246592,"TREE_ID":28739,"SPECIES_NAME":"HIPPOCASTANUM","COMMON_NAME":"COMMON HORSECHESTNUT","DIAMETER":8,"GENUS_NAME":"AESCULUS","LONGITUDE":-123.142186}},{"type":"Feature","geometry":{"type":"Point","coordinates":[-123.14209747314453,49.246490478515625,0]},"properties":{"DATE_PLANTED":"20190602","CULTIVAR_NAME":" ","LATITUDE":49.246492000000003,"TREE_ID":28740,"SPECIES_NAME":"HIPPOCASTANUM","COMMON_NAME":"COMMON HORSECHESTNUT","DIAMETER":10,"GENUS_NAME":"AESCULUS","LONGITUDE":-123.142101}},{"type":"Feature","geometry":{"type":"Point","coordinates":[-123.14223480224609,49.246498107910156,0]},"properties":{"DATE_PLANTED":"20190602","CULTIVAR_NAME":" ","LATITUDE":49.246496999999998,"TREE_ID":28741,"SPECIES_NAME":"ACERIFOLIA   X","COMMON_NAME":"LONDON PLANE TREE","DIAMETER":13,"GENUS_NAME":"PLATANUS","LONGITUDE":-123.142234}},{"type":"Feature","geometry":{"type":"Point","coordinates":[-123.14271545410156,49.246498107910156,0]},"properties":{"DATE_PLANTED":"20190602","CULTIVAR_NAME":" ","LATITUDE":49.246499999999997,"TREE_ID":28746,"SPECIES_NAME":"ACERIFOLIA   X","COMMON_NAME":"LONDON PLANE TREE","DIAMETER":27,"GENUS_NAME":"PLATANUS","LONGITUDE":-123.142713}},{"type":"Feature","geometry":{"type":"Point","coordinates":[-123.14291381835938,49.246601104736328,0]},"properties":{"DATE_PLANTED":"20190602","CULTIVAR_NAME":" ","LATITUDE":49.246600000000001,"TREE_ID":28747,"SPECIES_NAME":"AMERICANA","COMMON_NAME":"AMERICAN ELM","DIAMETER":10,"GENUS_NAME":"ULMUS","LONGITUDE":-123.142911}},{"type":"Feature","geometry":{"type":"Point","coordinates":[-123.14279174804688,49.246597290039062,0]},"properties":{"DATE_PLANTED":"20190602","CULTIVAR_NAME":" ","LATITUDE":49.246597000000001,"TREE_ID":28748,"SPECIES_NAME":"HIPPOCASTANUM","COMMON_NAME":"COMMON HORSECHESTNUT","DIAMETER":14,"GENUS_NAME":"AESCULUS","LONGITUDE":-123.14279000000001}},{"type":"Feature","geometry":{"type":"Point","coordinates":[-123.14297485351562,49.246501922607422,0]},"properties":{"DATE_PLANTED":"20190602","CULTIVAR_NAME":" ","LATITUDE":49.246502999999997,"TREE_ID":28749,"SPECIES_NAME":"AMERICANA","COMMON_NAME":"BASSWOOD","DIAMETER":18,"GENUS_NAME":"TILIA","LONGITUDE":-123.142972}},{"type":"Feature","geometry":{"type":"Point","coordinates":[-123.14311981201172,49.246509552001953,0]},"properties":{"DATE_PLANTED":"20190602","CULTIVAR_NAME":" ","LATITUDE":49.246507999999999,"TREE_ID":28750,"SPECIES_NAME":"AMERICANA","COMMON_NAME":"AMERICAN ELM","DIAMETER":24,"GENUS_NAME":"ULMUS","LONGITUDE":-123.143123}},{"type":"Feature","geometry":{"type":"Point","coordinates":[-123.14324188232422,49.246608734130859,0]},"properties":{"DATE_PLANTED":"20190602","CULTIVAR_NAME":" ","LATITUDE":49.246608000000002,"TREE_ID":28751,"SPECIES_NAME":"ACERIFOLIA   X","COMMON_NAME":"LONDON PLANE TREE","DIAMETER":36,"GENUS_NAME":"PLATANUS","LONGITUDE":-123.14323899999999}},{"type":"Feature","geometry":{"type":"Point","coordinates":[-123.14313507080078,49.246604919433594,0]},"properties":{"DATE_PLANTED":"20190602","CULTIVAR_NAME":" ","LATITUDE":49.246606,"TREE_ID":28752,"SPECIES_NAME":"AMERICANA","COMMON_NAME":"AMERICAN ELM","DIAMETER":24,"GENUS_NAME":"ULMUS","LONGITUDE":-123.143134}},{"type":"Feature","geometry":{"type":"Point","coordinates":[-123.14337921142578,49.246517181396484,0]},"properties":{"DATE_PLANTED":"20190602","CULTIVAR_NAME":" ","LATITUDE":49.246516999999997,"TREE_ID":28753,"SPECIES_NAME":"AMERICANA","COMMON_NAME":"BASSWOOD","DIAMETER":18,"GENUS_NAME":"TILIA","LONGITUDE":-123.143379}},{"type":"Feature","geometry":{"type":"Point","coordinates":[-123.14350891113281,49.246517181396484,0]},"properties":{"DATE_PLANTED":"20190602","CULTIVAR_NAME":" ","LATITUDE":49.246516999999997,"TREE_ID":28754,"SPECIES_NAME":"ACERIFOLIA   X","COMMON_NAME":"LONDON PLANE TREE","DIAMETER":25,"GENUS_NAME":"PLATANUS","LONGITUDE":-123.143506}},{"type":"Feature","geometry":{"type":"Point","coordinates":[-123.14354705810547,49.246612548828125,0]},"properties":{"DATE_PLANTED":"20190602","CULTIVAR_NAME":" ","LATITUDE":49.246611000000001,"TREE_ID":28755,"SPECIES_NAME":"AMERICANA","COMMON_NAME":"AMERICAN ELM","DIAMETER":14,"GENUS_NAME":"ULMUS","LONGITUDE":-123.14354899999999}},{"type":"Feature","geometry":{"type":"Point","coordinates":[-123.14344024658203,49.246612548828125,0]},"properties":{"DATE_PLANTED":"20190602","CULTIVAR_NAME":" ","LATITUDE":49.246611000000001,"TREE_ID":28756,"SPECIES_NAME":"ACERIFOLIA   X","COMMON_NAME":"LONDON PLANE TREE","DIAMETER":36,"GENUS_NAME":"PLATANUS","LONGITUDE":-123.143444}},{"type":"Feature","geometry":{"type":"Point","coordinates":[-123.14423370361328,49.246620178222656,0]},"properties":{"DATE_PLANTED":"20190602","CULTIVAR_NAME":" ","LATITUDE":49.246622000000002,"TREE_ID":28757,"SPECIES_NAME":"CORDATA","COMMON_NAME":"LITTLE-LEAF LINDEN","DIAMETER":11,"GENUS_NAME":"TILIA","LONGITUDE":-123.14423600000001}},{"type":"Feature","geometry":{"type":"Point","coordinates":[-123.14410400390625,49.246620178222656,0]},"properties":{"DATE_PLANTED":"20190602","CULTIVAR_NAME":" ","LATITUDE":49.246619000000003,"TREE_ID":28758,"SPECIES_NAME":"AMERICANA","COMMON_NAME":"AMERICAN ELM","DIAMETER":17,"GENUS_NAME":"ULMUS","LONGITUDE":-123.14410599999999}},{"type":"Feature","geometry":{"type":"Point","coordinates":[-123.14395141601562,49.246612548828125,0]},"properties":{"DATE_PLANTED":"20190602","CULTIVAR_NAME":" ","LATITUDE":49.246614000000001,"TREE_ID":28759,"SPECIES_NAME":"ACERIFOLIA   X","COMMON_NAME":"LONDON PLANE TREE","DIAMETER":24,"GENUS_NAME":"PLATANUS","LONGITUDE":-123.143953}},{"type":"Feature","geometry":{"type":"Point","coordinates":[-123.14441680908203,49.246856689453125,0]},"properties":{"DATE_PLANTED":"20190602","CULTIVAR_NAME":" ","LATITUDE":49.246856000000001,"TREE_ID":28762,"SPECIES_NAME":"ACERIFOLIA   X","COMMON_NAME":"LONDON PLANE TREE","DIAMETER":32,"GENUS_NAME":"PLATANUS","LONGITUDE":-123.144414}},{"type":"Feature","geometry":{"type":"Point","coordinates":[-123.14438629150391,49.246780395507812,0]},"properties":{"DATE_PLANTED":"20190602","CULTIVAR_NAME":" ","LATITUDE":49.246780999999999,"TREE_ID":28763,"SPECIES_NAME":"ACERIFOLIA   X","COMMON_NAME":"LONDON PLANE TREE","DIAMETER":27.5,"GENUS_NAME":"PLATANUS","LONGITUDE":-123.144386}},{"type":"Feature","geometry":{"type":"Point","coordinates":[-123.14434051513672,49.246677398681641,0]},"properties":{"DATE_PLANTED":"20190602","CULTIVAR_NAME":" ","LATITUDE":49.246678000000003,"TREE_ID":28764,"SPECIES_NAME":"ACERIFOLIA   X","COMMON_NAME":"LONDON PLANE TREE","DIAMETER":23,"GENUS_NAME":"PLATANUS","LONGITUDE":-123.144344}},{"type":"Feature","geometry":{"type":"Point","coordinates":[-123.12867736816406,49.247295379638672,0]},"properties":{"DATE_PLANTED":"20190602","CULTIVAR_NAME":" ","LATITUDE":49.247297000000003,"TREE_ID":27760,"SPECIES_NAME":"AMERICANA","COMMON_NAME":"AMERICAN ELM","DIAMETER":29,"GENUS_NAME":"ULMUS","LONGITUDE":-123.12867900000001}},{"type":"Feature","geometry":{"type":"Point","coordinates":[-123.12897491455078,49.247207641601562,0]},"properties":{"DATE_PLANTED":"20190602","CULTIVAR_NAME":" ","LATITUDE":49.247208000000001,"TREE_ID":27762,"SPECIES_NAME":"AMERICANA","COMMON_NAME":"AMERICAN ELM","DIAMETER":22,"GENUS_NAME":"ULMUS","LONGITUDE":-123.12897700000001}},{"type":"Feature","geometry":{"type":"Point","coordinates":[-123.12912750244141,49.247211456298828,0]},"properties":{"DATE_PLANTED":"20190602","CULTIVAR_NAME":" ","LATITUDE":49.247211,"TREE_ID":27763,"SPECIES_NAME":"AMERICANA","COMMON_NAME":"AMERICAN ELM","DIAMETER":17.5,"GENUS_NAME":"ULMUS","LONGITUDE":-123.129127}},{"type":"Feature","geometry":{"type":"Point","coordinates":[-123.13040924072266,49.247329711914062,0]},"properties":{"DATE_PLANTED":"20190602","CULTIVAR_NAME":" ","LATITUDE":49.247328000000003,"TREE_ID":27770,"SPECIES_NAME":"AMERICANA","COMMON_NAME":"AMERICAN ELM","DIAMETER":40,"GENUS_NAME":"ULMUS","LONGITUDE":-123.130409}},{"type":"Feature","geometry":{"type":"Point","coordinates":[-123.13015747070312,49.247322082519531,0]},"properties":{"DATE_PLANTED":"20190602","CULTIVAR_NAME":" ","LATITUDE":49.247321999999997,"TREE_ID":27771,"SPECIES_NAME":"AMERICANA","COMMON_NAME":"AMERICAN ELM","DIAMETER":24,"GENUS_NAME":"ULMUS","LONGITUDE":-123.13015900000001}},{"type":"Feature","geometry":{"type":"Point","coordinates":[-123.12996673583984,49.247417449951172,0]},"properties":{"DATE_PLANTED":"20190602","CULTIVAR_NAME":" ","LATITUDE":49.247416999999999,"TREE_ID":27772,"SPECIES_NAME":"AMERICANA","COMMON_NAME":"AMERICAN ELM","DIAMETER":25,"GENUS_NAME":"ULMUS","LONGITUDE":-123.129966}},{"type":"Feature","geometry":{"type":"Point","coordinates":[-123.13078308105469,49.247234344482422,0]},"properties":{"DATE_PLANTED":"20190602","CULTIVAR_NAME":" ","LATITUDE":49.247233000000001,"TREE_ID":27776,"SPECIES_NAME":"SACCHARUM","COMMON_NAME":"SUGAR MAPLE","DIAMETER":22.5,"GENUS_NAME":"ACER","LONGITUDE":-123.130785}},{"type":"Feature","geometry":{"type":"Point","coordinates":[-123.13101196289062,49.247333526611328,0]},